Name,Address,Grades,Tips,Sentiment,Latitude,Longitude 
412 Broadway,"'412 W Broadway.,Boston,MA,USA'",'A; B; C','Go here instead of south station to beat the northbound crowd; Inbound: be at the back for park  front for dtx transfers; If you're looking for a great dining experience (and hearty portions)  head upstairs  down West Broadway one block  and into Amrhein's.; Walk across the bridge to the South End; In a country with poorly funded public transport like the USA expect packed trains between 8 and 8:45. Sometimes there is a train right behind the one with no space for you. Sometimes there is not.',0.038730159,42.3370712,-71.0476839
5 Napkin Burger,"'101 Huntington Ave.,Boston,MA,USA'",'A; B; C','Burgers cooked to order.  Asked for medium rare  got medium rare!!  French fries extra.; Patty in their special burger is juicy and tender. Ribs are really spicy. Everyday special thing works only at the bar. Overall  the place is ok but nothing extraordinary.; Had the Korean BBQ with turkey. It was delish. Wait staff was friendly and provide good service. Sweet Potato fries are a must!; This is a hopping place! The food was excellent. Some of the VERY BEST sweet potato fries I've ever had.; The fries were amazing! The turkey burger was meh',0.484627976,42.3468751,-71.0811237
75 On Liberty Wharf,"'220 Northern Ave.,Boston,MA,USA'",'A; B; C','Plantains are yummy; What kind of place in Boston on the water doesn't have lobster rolls on the dinner menu? _ôÖ©; Fantastic cocktails - pictured is the Stormy Northeast. Their Bloody Marys are also ginormous!; Loved the salmon BLT... So much salmon cooked perfectly; Great brunch spot with delicious Eggs Benedict and make your own Bloody Mary bar!',0.256666667,42.3492652,-71.0398056
99 Restaurant And Pub,"'29 Austin St.,Boston,MA,USA'",'A; B; C','Solid bbq this far north; Awesome BBQ; Had the burnt ends last thing on a Sunday night and they will still really good. Very friendly staff  as well.',0.481944444,42.3749116,-71.0670168
A K's Take Out & Delivery,"'1427 Tremont St.,Boston,MA,USA'",'A; B; C','Get the large calzone! It'll feed a small army; Place is Amazing. A bit pricey though.; food not great but it closes at 1AM; A greasy  guilty pleasure. Cheap and tasty burgers  assembled with love and extra grease. Prepare for translucent paper bags filled with fries or o-rings.; Get the jalapeí±o poppers  but ask what kind of cheese is in them first!! Yummmm',0.172848214,42.3318927,-71.0963204
Abe & Louie's,"'793 Boylston St.,Boston,MA,USA'",'A; B; C','Bone-in ribeye is so good it's impossible to describe. Potatoes au gratin also amazing.; 5/10 for me their desserts are better than the steaks; Excellent seafood.; Aged delmonico steak with a side of cream spinach  sautí©ed mushrooms and maybe any potato side order. Mmmmm-mm!; Every time I'm in Boston I come here for dinner: Bone In Ribeye Medium Rare & the Tomato/Onion salad and I am a happy man!',0.447222222,42.3492427,-71.0816005
Acapulco Mexican Restaurant,"'466 Centre.,Boston,MA,USA'",'A; B; C','I get a margarita with Patron tequila. They use fresh squeezed lime juice and they make their own simple syrup. I however wish they would improve their food. Main reason I hardly go. Same old menu.; This place sucks to the max... management will not stick up for the customer when the wait staff brings you the wrong food and demands that you pay for it even if you don't eat it.  Stay away!!!!; make sure you ask for plasticware with your takeout; Phenomenal margaritas... Go for the traditional  El Presidente; The food is so-so and the service is pretty slow.',0.053888889,42.3192366,-71.1118613
Afc Sushi @ Shaw's No. 586,"'4 River St.,Boston,MA,USA'",'A; B; C','',0,42.2718903,-71.0697097
Afc Sushi @ Walgreens No. 15390,"'10 School St.,Boston,MA,USA'",'A; B; C','',0,42.376948,-71.0655669
Al Dente Ristorante,"'109 Salem St.,Boston,MA,USA'",'A; B; C','Anything I have tried.  Home style perfection.  Staff is accommodating and great. Carbonarra to die for.; Going for 20 years. Got here tonight and the best cannalloni in Boston's North End and beyond is NOT on the menu.; The penne a la vodka is amazing. Perfect amount of spice and creamy. The chicken parm is also one of my favorites; Delicious fresh made pasta. Huge portions though! You honestly could share one between two.; Portions are enormous  but simply not tasty',0.546666667,42.3642076,-71.0553658
Al's State St. Cafe,"'112 State.,Boston,MA,USA'",'A; B; C','Have your order ready because once you are at the front  they are fast!; Any Philly expats will appreciate the steak and cheese here - not quite a steak  but pretty close. All sandwiches are solid choices - probably the best value for subs in Boston.; Muy buenos subs y barato; Best chicken salad sandwich around; Went away for a year and a half  never forgot Al's chicken salad!',0.076666667,42.3593207,-71.0548687
Alex's Chimis,"'358 Centre.,Boston,MA,USA'",'A; B; C',"'I love their batata and plíçtano maduro! Kinda expensive sometimes especially when they don't fill plates; Batata frita and yuca; Chimis  half chicken; carnitas  yellow rice  batatas  and some of the best picked onions i've ever had. always enough for 2 meals.; Good old dominican fried food. It's only a pity they do not sell ""Presidente"" beer!'",0.032083333,42.3222409,-71.1076541
Alfredo's Italian Kitchen,"'243 Dorchester St.,Boston,MA,USA'",'A; B; C','The steak tips are delicious!; Ckn cutlet buffalo ckn salad or pizza grill ckn ceasar salad ckn steak shrimp ziti alfredo; Steak tips and peppers are our trusted choice here! http://bit.ly/1jl8f51; These guys are the best takeout/delivery option in Southie. Good food  good service.; Steak tips and peppers are the shit here! Pricey but lots of food per order.',0.31,42.3328298,-71.0513318
Allis Roti + Meat Market,"'1188 Blue Hill Ave.,Boston,MA,USA'",'A; B; C','',0,42.283748,-71.0912565
Amelia's Taqueria,"'180 Brighton Ave.,Boston,MA,USA'",'A; B; C','Chimichanga a must try!; Great and inexpensive Mexican food. Try the tortas. Delicious.; Aside from their hospitable  warm/welcoming & awesome staff  their food is the best Mexican/Hispanic food in all of boston. this coming from a cuban growing up in Los Angeles  New Jersey & Brooklyn.',0.437373737,42.3530424,-71.1336465
Amsterdam Cafe,"'483 E Broadway.,Boston,MA,USA'",'A; B; C','Call ahead or place your order online. It will take them 30+ mins to make a panini. 2 guys stood around on their cell phones. The counter girl stayed in the back. A customer left after waiting 10 mins; Get the Windmill!! It's the best!!; bla bla bla?; love will tear us apart; i'll b there',0.3,42.3352353,-71.0455201
Anchovies Restaurant,"'433 Columbus Ave.,Boston,MA,USA'",'A; B; C','Stuffy. Get a whole Boston cream pie for $45 instead of by the slice.; Issue #170 Saveur; Wings and Boston cream pie!; Elegant place to try the original Boston Cream Pie. Must to do!; Steak is better than Ruth's Chris across the street. Seriously  try it. You can do a fixed 3 course dinner for $38  includes the Boston cream pie dessert',0.154652778,42.3440216,-71.0778505
Anna's Taqueria,"'242 Cambridge St.,Boston,MA,USA'",'A; B; C','Burrito super; The super burrito is more than enough for breakfast.; Very bland. Food was clean but lacked flavor. Felt like I was eating hospital food.; CHILE VERDE ANYTHING.; Delish! But no booze',0.137222222,42.3609297,-71.0671098
Anshur Restauruant,"'291 Roxbury St.,Boston,MA,USA'",'A; B; C','Lamb shank with rice is amazing; best Ginger chai ! make u feel fresh.; Great food. Chicken Biryani is a delicious choice!; Totally foreign atmosphere  but I liked my rice dish (forget the name).; Get the tea!!!!!!',0.3775,42.3304142,-71.0942869
Anthony's @ Adams Village,"'789 Adams St.,Boston,MA,USA'",'A; B; C','It's very simple: Windy City for dinner  Eire Pub for beers afterwards.; Steve Morgan is a horrible mayor of Adams village.  We need to oust him.; Very nice Irish people.',-0.266666667,42.2832473,-71.0559502
Antico Forno,"'93 Salem St.,Boston,MA,USA'",'A; B; C','Their pasta kills me. SOOOO good! Anything with seafood in it is just perfect. Best of Napoli indeed!; The rumanian waitress was so rude to us... But the food was good; Best Italian food and pizza in Boston. Great bread and olive oil. Get the caprese and focaccina con caprino (focaccia flatbread with goat cheese  balsamic glaze  greens) as appetizers.; Muy Buena Pizz@.  la Caprichosa  la mejor; Lasagna of vegetables very good!!! But it's very warm inside  they don't have AC.',0.529666667,42.3637779,-71.0555443
Antonio's Italiano Cucina,"'286 Cambridge St.,Boston,MA,USA'",'A; B; C','Excellent cannoli! <3; Great food  love this place. Vodka sauce was awesome - fast and tasty.; The perfect go to Italian spot in beacon hill. Family run. No frills. Just delicious food. They also have the best cannoli in the city!; This is a fantastic place. The food is just as good or even better than some places in the North End. Sometimes you have to wait...well worth it. Great prices! Ask for Anthony C. Best waiter!; The food is awesome! Get the waiter; Anthony he was great with explaining the dishes and gave great suggestions.',0.778333333,42.3609998,-71.0681511
Antonio's Pizzeria,"'1508 Dorchester Ave.,Boston,MA,USA'",'A; B; C','The pizza! Duh! Oh and they are so friendly too...; Good Pizza. Good Customer Service.; Monday:11:00AM to12:00PMTuesday:11:00 AM to 12:00 PMWednesday: 11:00 AM to 12:00 PMThursday: 11:00 AM to 12:00 PMFriday: 11:00 AM to 12:00 PMSaturday: 11:00 AM to 12:00 PMSunday: 11:00 AM to 12:00 PM',0.233333333,42.2993781,-71.0600672
Appleton Bakery & Cafe,"'75 Dartmouth St.,Boston,MA,USA'",'A; B; C','Tantalizing baked goods; So many food options and DELICIOUS coffee.; Wifi = travelmug; Chicken Caesar wrap  nice comfortable seating area; Get the Muffaletta sandwich. Savory  satisfying and pairs well with any of their sweets.',0.276666667,42.3451309,-71.0748786
Aquitaine,"'569 Tremont St.,Boston,MA,USA'",'A; B; C','This place used to be one of my favorites. Went back today and the ambience  service and food were terrible. Never coming back here again; Crab cakes were excellent!; 11.95 Prix Fixe Brunch is awesome! Coffee  juice  cinnamon bun  and choice of omelette or crepe! Note: Aquitaine is now closed for 3 months for renovations!; Great brunch atmosphere. The waffles were the best.; Great 7 oysters for $7 happy hour',0.560833333,42.3437833,-71.0724315
Aramark At Houghton Mifflin,"'222 Berkeley St.,Boston,MA,USA'",'A; B; C','',0,42.350667,-71.0731944
Arboretum Grill,"'4021 Washington St.,Boston,MA,USA'",'A; B; C','I got their hummus and falafel - amazing.; This is my first meal in this place.Foods are awesome pizza and tenders are my favorite.before i ordered some food from this place  delivery really fast also.; Asked for chicken cutlet with lettuce  got chicken parm....awful.; First time here. Great staff  great food! Will be coming here more often! I got the southern burger and fries.',0.19,42.2919936,-71.122395
Archie's Place,"'227 Washington St.,Boston,MA,USA'",'A; B; C','Generous lunch portions and specials. The chicken cordon bleu  spicy fish and grilled salmon on rice or salad are all good.; Amazing lunch specials!; The salmon plate with rice pilaf and salad is the perfect satisfying but not food coma-inducing lunch.; The chicken kebabs with rice and salad are amazing. Get the to go box  even if you are eating there  you more food.',0.429166667,42.3018246,-71.0775917
Aris Barbeque,"'200 Faneuil Hall Market Pl.,Boston,MA,USA'",'A; B; C',"'This place is awful and overpriced. Dry  bland  heat lamp food passed off as ""barbecue"" to unsuspecting tourists. Plenty of better places in Quincy Market to eat.'",-0.183333333,42.3597994,-71.0544602
Arizona B B Q,"'2360 Washington St.,Boston,MA,USA'",'A; B; C','Chinese butcher shop. Great pre-boarding place to grab takeaway char siu and rice  before leaving from south station.',0.4,42.3293674,-71.0844591
Artu,"'6 Prince.,Boston,MA,USA'",'A; B; C','Great negroni. Ravioli was good but would have liked bigger portion. Bread was no good.; The music after 9pm; Great wine selection!; Has take out  bar  modern decor restaurant.; Excellent atmosphere! Great service  vongole pasta is to die for! Highly recommend this restaurant',0.454,42.3641456,-71.0537493
Ashmont Grill,"'555 Talbot Ave.,Boston,MA,USA'",'A; B; C','LOVE this place. Don't miss the train wreck fries. Or the lamb burger. Or the BEEF burger. Or the amazing kale salad....; Applewood Ribs; The Brussels sprouts are yummy!; The drinks are wonderful. Food was good. Parking was awful. Take the T and have more drinks!; They cook a mean steak!',0.098125,42.2860648,-71.0647658
Asian Garden Restaurant Inc.,"'28 Harrison Ave.,Boston,MA,USA'",'A; B; C','Service leaves much to be desired. Their spicy wings aren't spicy but very good (they're salt & pepper wings). Big portions and inexpensive. Beef chow foon lacked flavor & was too oily 3/5; All the food is good.; Katsu pork chop with curry; The Maggi flavored duck tongues are a must try. I order or every time I'm here.; Two words: chicken wings! Order the spicy chicken wings (tender on the inside and crispy on the outside) and the sticky rice stuffed chicken wings. Yum! Both are always a hit at parties.',0.109,42.3519404,-71.0610193
Asian House,"'99 Cambridge St.,Boston,MA,USA'",'A; B; C',"'They're Cambodian  but they cover the menus of Thailand  Vietnam and China.; Definitely an upgrade from previous occupant.; This used to be ""Beijing Taste.""'",-0.027777778,42.3825388,-71.0791988
Asian Thai Eatery Inc.,"'1064 River St.,Boston,MA,USA'",'A; B; C','No tips from Foursquare!',0,42.2588094,-71.1177451
Au Bon Pain,"'75 Francis St.,Boston,MA,USA'",'A; B; C','They just seem to be putting the labels out wherever they land if at all on the bagels lately.; Too crowded during lunch bcz every business person an their mother piles up here but good lunch food nonetheless; Staff is extra friendly!; I recommend the eggplant soup and black bean burger!; The bagels are good plain  but I you're going to add cream cheese try the veggie',0.133779762,42.3360887,-71.1067067
Au Bon Pain,"'17 Blackfan St.,Boston,MA,USA'",'A; B; C','They just seem to be putting the labels out wherever they land if at all on the bagels lately.; Too crowded during lunch bcz every business person an their mother piles up here but good lunch food nonetheless; Staff is extra friendly!; I recommend the eggplant soup and black bean burger!; The bagels are good plain  but I you're going to add cream cheese try the veggie',0.133779762,42.337394,-71.106273
Au Bon Pain,"'26 Park Plaza.,Boston,MA,USA'",'A; B; C','They just seem to be putting the labels out wherever they land if at all on the bagels lately.; Too crowded during lunch bcz every business person an their mother piles up here but good lunch food nonetheless; Staff is extra friendly!; I recommend the eggplant soup and black bean burger!; The bagels are good plain  but I you're going to add cream cheese try the veggie',0.133779762,42.3510123,-71.0679728
Au Bon Pain,"'431 Boylston St.,Boston,MA,USA'",'A; B; C','They just seem to be putting the labels out wherever they land if at all on the bagels lately.; Too crowded during lunch bcz every business person an their mother piles up here but good lunch food nonetheless; Staff is extra friendly!; I recommend the eggplant soup and black bean burger!; The bagels are good plain  but I you're going to add cream cheese try the veggie',0.133779762,42.3515392,-71.0729131
Au Bon Pain Store No. 41,"'800 Boylston St.,Boston,MA,USA'",'A; B; C','',0,42.348521,-71.0822975
Auntie Vie's Bakery & Cafe,"'480 Washington St.,Boston,MA,USA'",'A; B; C','Having tried the pineapple pie and coconut turnover  I knew Auntie Vie could make a mean dessert  but her lunches are just as impressive',0.34375,42.3487191,-71.1603762
Azama Grill,"'44 Harvard Ave.,Boston,MA,USA'",'A; B; C','Holds up to some of the best New York shawarma - well done Azama!; Everything is good! Kafta kebab plate is my favorite! All plates comes with hommus (the best)  rice and salad (cucumber salad with tomatoes and taboulleh on top. 10 stars!; The azama combo; They have really good beef and lamb Shawarma and the workers  are really nice. Cash only for $10 or less :); Awesome food (get lamb shawarma). The employees are super nice but some customers are annoying (except me  of course).',0.395295455,42.3545725,-71.1322728
B. Good,"'131 Dartmouth St.,Boston,MA,USA'",'A; B; C',"'Probably my favorite ""fast food"" place. Turkey burger (prepared west side)  fries and a side of crisp veggies  and I'm in my happy place.; Everything there can be gluten free! Incredible  local and delicious.; I'm addicted to the fries! Bowls are also delicious and can easily be made vegan. Don't come here during lunch time if you're in a rush  the orders take forever.; The El Guapo chicken sandwich is soooo good. Skip the curried avocado kale and quinoa bowl.; Double el guapo. Fresh and juicy with a side of real fries. 3.75/5'",0.313055556,42.3469178,-71.0750402
B.U. Warren Tower Cafe,"'700 Commonwealth Ave.,Boston,MA,USA'",'A; B; C','No tips from Foursquare!',0,42.349341,-71.1039816
B.U.Dining Srvices-1St Fl.,"'100 Bay State Rd.,Boston,MA,USA'",'A; B; C','',0,42.3497666,-71.0979066
Ba Le Fields Corner,"'1449 Dorchester Ave.,Boston,MA,USA'",'A; B; C','No tips from Foursquare!',0,42.301172,-71.060096
Babbo Pizzeria,"'11 Fan Pier Bl.,Boston,MA,USA'",'A; B; C',"'We had to sit in the bar area  because we did not have a reservation  which was no problem. So better get a reservation even on weekdays. Food  ambient and staff were excellent!; The food is awesome. We did the ""sharing"" thing and we're thrilled with everything we ordered.; Service was very good  not like others reviews  but for the price  the food was not that special.; The rigatoni pasta with eggplant was awful- pasta had no taste or flavor and they were not even cooked properly!!; We tried the goat cheese pistachio pizza with truffle honey and this was very good!!!'",0.536714286,42.352915,-71.0460679
Back Bay Harry's,"'142 Berkeley St.,Boston,MA,USA'",'A; B; C','Loved the lobster guacamole from restaurant week..yummyy; Good place for a quick business lunch with a widely enjoyed menu.; I had the breakfast egg platter  which was delicious. And it's a good price to.; Great cocktails _ôïë; Great brunch and friendly people. Close to Boston center and South end.',0.643888889,42.3487138,-71.0722817
Back Bay Social Club,"'867 Boylston St.,Boston,MA,USA'",'A; B; C','Good brunch. The mimosa is a little pricey. I recommend you go with one of the brunch cocktails.; Narragansett Del's Shandy on tap...; Scallops with lobster risotto...very tasty!; The wait staff was excellent and attentive.  The pizza is big enough to share with another person.; Great food and customer service!',0.32125,42.3487423,-71.0834529
Bamboo Restaurant,"'1616 Commonwealth Ave.,Boston,MA,USA'",'A; B; C','Stuffy. Get a whole Boston cream pie for $45 instead of by the slice.; Issue #170 Saveur; Wings and Boston cream pie!; Elegant place to try the original Boston Cream Pie. Must to do!; Steak is better than Ruth's Chris across the street. Seriously  try it. You can do a fixed 3 course dinner for $38  includes the Boston cream pie dessert',0.154652778,42.343229,-71.1427851
Banh Mi Ngon/Vietnamese Gourmet Sandwiches,"'1759 Centre St.,Boston,MA,USA'",'A; B; C','',0,42.2874942,-71.15064
Bani Restaurant,"'4541 Washington St.,Boston,MA,USA'",'A; B; C','Delicious Dominican Food!  Very nice servers.; For the record  NO PIZZA served here. Only GREAT DOMINICAN FOOD!!!!',0.695,42.2783531,-71.1372349
Barracuda Tavern,"'53 Bromfield St.,Boston,MA,USA'",'A; B; C','Enjoyed the lobster quesadilla and calamari. Good beer selection too. Atmosphere is casual.; Great little bar a bit off the beaten path.; Mickey is the man.; Wicked awesome dive.; Food: seafood linguine  disco fries  steak tips...I can go on. Everything's delicious. Great beer selection. 50 cent oysters on Sunday and Monday.',0.487916667,42.357039,-71.0606422
Bartlett Square Cafe,"'154 Green St.,Boston,MA,USA'",'A; B; C','Amazing breakfast  but expect a queue on weekends!; Get the French toast delight if you really really like fruit. The plate is a fruit salad on French toast! Fruit salad  yummy yummy; Moroccan Eggs are pretty good  especially with Omar's grilled mash!; Get a huge breakfast platter  or the even huger omelette. Throw in a side french toast or pancake  just for the heck of it. It's brunch  and you only live once.; Mike's staff will take great care of you. Get the French Toast delight with piles of fruit and homemade whipped buttercream. Half orders available!',0.310151515,42.3104844,-71.1065318
Basho Japanese Brasserie,"'1341 Boylston St.,Boston,MA,USA'",'A; B; C','Excellent service. I can't remember our server's name  but she was so nice and accommodating. Decent food  but they stopped serving wagyu beef about two months ago. Good option in the Fenway area.; I had a really great meal here. Split a sushi boat with a friend  had a phenomenal pork bun  and crushed a delicious Scorpion bowl   complete with a flaming shot of sambuca in the center.; a good range of sake & shochu - ÎæÇ_Šó def. try plum wine!; The only spicy tuna rolls as good as Douzo!; Definitely try the Spicy Lobster Miso!',0.459166667,42.3446572,-71.0995726
Bean & Leaf Cafe,"'20 Custom House St.,Boston,MA,USA'",'A; B; C','I forgot the name of the sandwich it was turkey and sourdough bread with nice lettuce avocado and a very nice dressing with tomatoes it was great.; Thursday is chicken pot pie day!; The taco salad is perfect without any dressing. Don't ruin the yummy taco flavor!; Get the soup and sandwich; Get the white bean chicken chile. Good stuff!',0.213666667,42.3581038,-71.0533603
Beantown Hoagie,"'102 Water St.,Boston,MA,USA'",'A; B; C','#5 specialty sandwich!; Large sandwich portions and surprisingly good salads.; The #1 chicken sandwich is delicious. Awesome honey mustard and avocado.; Sandwiches; Chipotle 3 pepper sandwich is delicious',0.384761905,42.3581726,-71.0549454
Beantown Pho & Grill,"'272 Newbury St.,Boston,MA,USA'",'A; B; C','Veggie spring rolls with shrimp is the perfect appetizer; Pho is on point. Small place  but service is fast.; Pho ga was tasty  and music was lit.; Pretty good place. Tiny and a little pricey but nice menu selection. 4/5; The Tom yum pho was really good  as was the pho dac biet',0.3895,42.3491216,-71.0834316
Beantown Pub,"'100 Tremont St.,Boston,MA,USA'",'A; B; C','Burger and lobster roll were good enough to Warren a second visit; Good burger  but mediocre fries. Atmosphere a bit too frat party for my taste.; Great place to have a drink downtown Boston  the music was just aweful when we were there. Grab a Sam Adams and look across the street at Sam Adams grave.; Fish and chips was decent  service wasn't.; This would be my neighborhood bar if I lived downtown. Typical bar fare  but the beers are where it's at.',0.226666667,42.3568438,-71.0615914
Beijing Cafe,"'728 Commonwealth Ave.,Boston,MA,USA'",'A; B; C','Small and a little off putting but great dumplings.; They have a credit card minimum of $15... come with an appetite or come prepared with ca$h!; delicious food and vegetarian options; Best general tsaos chicken. Doesn't get cheaper than this.; Get the gen gaos chicken  they even have it in vegetarian! House fried rice is also amazing and the crab rangoons are to die for!',0.254166667,42.3496909,-71.1064212
Bella Vista,"'288 Hanover St.,Boston,MA,USA'",'A; B; C','I don't like food and service here. Not welcoming staff !; Big dishes  make sure you share  Bon Appí©tit!; Everything!!; We ended up here because it had no line. The portions are large and well priced   but the food was mediocre. Quick service.; Not great service  not great food  not great prices',-0.014325397,42.3640379,-71.0544931
Berkeley Perk Cafe,"'69 Berkeley St.,Boston,MA,USA'",'A; B; C','An underrated gem just across the bridge in the South End for cheap and delicious sandwiches and coffee.; Have the chai latte.. if you don't want sugar in it  let them know beforehand.; Really strong tuna melt. Maybe the best in the South End. Order the California Tuna Melt on ciabatta with cheddar cheese.; Bagels!  Great coffee!; The mocha rage _ôï_ôï_ôï',0.483333333,42.3468079,-71.0706174
Berklee College Of Music,"'160 Massachusetts Ave.,Boston,MA,USA'",'A; B; C','DON'T LET THE MOON MEN TAKE YOU; SHOW ME DA CAR FAX  SHAQ.; DUNK THE COOKIES IN THE COFFEE FOR A FLAVOR EXPERIENCE YOU AIN'T NEVAH HAD!!!',0,42.3462238,-71.0869209
Bertucci's,"'1 Blackfan Cr.,Boston,MA,USA'",'A; B; C',"'Nice place  the food very delicious and their prices are reasonable; It was all below average  except the rolls.; Good few beers on tap and tasty food too. Try the Grilled Shrimp salad.; Ohh yeah _ô»_; _ì_µãã‰__ _Ëãóã__ ""___Ÿ___Ÿ _Öã‰_Á_é_Ÿã"" - _Ë___é____ _Ÿã‰_Á_éãëã__ãÊ_µ__  ____ã€ã____ _Ÿ ãã†ã‰____ :-)'",0.24,42.3383539,-71.1049218
Bertucci's Brick Oven Pizza,"'22 Merchants Ro.,Boston,MA,USA'",'A; B; C','No tips from Foursquare!',0,42.3593983,-71.0558269
Bertucci's Brickoven Pizzeria,"'533 Commonwealth Ave.,Boston,MA,USA'",'A; B; C','No tips from Foursquare!',0,42.3492583,-71.0966572
Best Barbecue Kitchen,"'86 Beach.,Boston,MA,USA'",'A; B; C','Chinese butcher shop. Great pre-boarding place to grab takeaway char siu and rice  before leaving from south station.',0.4,42.3510043,-71.0589047
Bibim Restaurant,"'166 Harvard Ave.,Boston,MA,USA'",'A; B; C','Stuffy. Get a whole Boston cream pie for $45 instead of by the slice.; Issue #170 Saveur; Wings and Boston cream pie!; Elegant place to try the original Boston Cream Pie. Must to do!; Steak is better than Ruth's Chris across the street. Seriously  try it. You can do a fixed 3 course dinner for $38  includes the Boston cream pie dessert',0.154652778,42.3515054,-71.1314451
Biddy Earlys,"'141 Pearl St.,Boston,MA,USA'",'A; B; C','The definition of a great dive bar in Boston in Biddy Early's.; Go for DJ Tanner.; If you happen to be in the area  just come hang out. It's cool.; Great dive bar  pretty packed on Friday night. If you are visiting the area  don't miss it; Try to get in on a game of darts or just enjoy a bucket of beers with your friends at this late night staple.',0.245,42.3546587,-71.0537456
Billy Tse Restaurant,"'240 Commercial St.,Boston,MA,USA'",'A; B; C','Service is great and fast. Feel like the food went a little down hill. Will still be going back.; The service was a little spotty  but it was a busy night. Portions are big - enough for leftovers. The spring roll and shrimp lo mein were both great.; You cannot go wrong with their weekday lunch specials which my dad and I enjoy all the time. Kat and Lauren are two good bartenders. Service is always excellent and food is always fresh and tasty.; Nothing like a Scorpion bowl and Pu Pu Platter; As of 1/18/13 they no longer accept Level Up!',0.130777778,42.363856,-71.0514454
Bishop's Mediterranean,"'70 Staniford St.,Boston,MA,USA'",'A; B; C','There falafel plate; Chicken shawarma  tabouli  and hummus was bomb. Get extra pickled radish and lemon ginger.; Grilled Kafta Kabob Plate is excellent. Comes with their excellent humus and salad or fries or rice.',0.233333333,42.3631455,-71.0643402
Bistro Du Midi,"'272 Boylston St.,Boston,MA,USA'",'A; B; C','Love the charcuterie here! But everything is delicious!; Try black sesame desert/icecream; Sit on the 2nd floor for a nice brunch overlooking the park. Croque monsieur was to die for. Very attentive staff.; Cozy  nice fireplace  excellent French food and an impressive wine list. A must try!; Croque monsieur !!',0.299833333,42.3519657,-71.0694932
Black Rose,"'160 State St.,Boston,MA,USA'",'A; B; C','Clam chowder was delicious and the service was amazing. They make you feel like home. I will be back next time I'm in Boston; Black and Tan  atmosphere and friendly people!; The breakfast is great! And the best part  you can have beer; NE Clam Chowder!!; Good potato skins  beer and atmosphere.',0.450208333,42.359437,-71.0537795
Blasi's Cafe,"'756 Adams St.,Boston,MA,USA'",'A; B; C','The food  the service and the people that work there!!; On the take out menu  be aware of the special bonus with hot/grilled sandwiches: they're served with a side of French fries.; Get the honey hots!; Have a Tucher (on tap!); try the honey hots. delicious app',0.24047619,42.2838094,-71.0553018
Bleacher Bar,"'70 Lansdowne St.,Boston,MA,USA'",'A; B; C','Best view  worst service. We were asked to wait 15 minutes for a table  we waited for 35 minutes  watching several other groups get seated before us even though they arrived later. Li'l Racist maybe?; Arrive early on game day to score a seat near the overhead to view the players warming up!; Great service; Yo  just don't take any pictures of the sign.; Good place to take Boston visitors since it has the best Fenway Park view. What's more is the comfort food is delicious here',0.303333333,42.3471765,-71.0973065
Blue Fuji,"'106 Cambridge St.,Boston,MA,USA'",'A; B; C','My favorite sushi spot in Medford!; Love that curried shrimp and their beef teriyaki is awesome; Great sushi  nice atmosphere  and friendly staff; AMAZING!! Turned me onto sushi.; order the beef chow foon or homemade udon noodles with chicken.',0.460833333,42.3610448,-71.0631847
Blue Hill Pizza,"'161 Blue Hill Ave.,Boston,MA,USA'",'A; B; C','No tips from Foursquare!',0,42.31929,-71.0779752
Blue Smoke Restaurant,"'1132 Blue Hill Ave.,Boston,MA,USA'",'A; B; C','Try the Albanian Omelet. DELICIOUS.; Great breakfast menu. Friendly staff.; Good food  good prices.  Sicilian omelet had a great combination of fillings and the coconut banana pancakes were tasty.; Cash only so be prepared.; The quietest table is by the drink fridge- in the corner',0.464166667,42.2855961,-71.0909099
Blue Star Restaurant,"'11 Corinth St.,Boston,MA,USA'",'A; B; C','Try the Albanian Omelet. DELICIOUS.; Great breakfast menu. Friendly staff.; Good food  good prices.  Sicilian omelet had a great combination of fillings and the coconut banana pancakes were tasty.; Cash only so be prepared.; The quietest table is by the drink fridge- in the corner',0.464166667,42.2865389,-71.1303503
Blue State Coffee,"'155 Seaport Bl.,Boston,MA,USA'",'A; B; C',"'The roasted turkey sandwich is incredible.; Cold brew coffee!; Mentality around coffee brewing and espresso is great but the baristas are inexperienced. Drinks are okay.; Iced Coffee helps get me through the workday; This is one of the best coffee shops in the Seaport. Great coffee  fresh (and organic) food and AMAZING staff. If you become a ""regular"" they'll remember your name or order. Check this place out!'",0.218,42.3496068,-71.042722
Boloco,"'569 Boylston St.,Boston,MA,USA'",'A; B; C','New England harvest salad is very good if you like squash and beets.; Try the Jimmy Carter smoothie.; Breakfast burritos.; Buffalo burrito  sub chicken for tofu. Great way for a vegetarian to get their buffalo fix!; Get the small bowl. They put the same amount of food in the large bowl  but it costs $2 extra',0.142850649,42.3506398,-71.0764819
Boloco,"'133 Federal St.,Boston,MA,USA'",'A; B; C','New England harvest salad is very good if you like squash and beets.; Try the Jimmy Carter smoothie.; Breakfast burritos.; Buffalo burrito  sub chicken for tofu. Great way for a vegetarian to get their buffalo fix!; Get the small bowl. They put the same amount of food in the large bowl  but it costs $2 extra',0.142850649,42.3542676,-71.05661
Bon Appetit Restaurant,"'1138 Blue Hill Ave.,Boston,MA,USA'",'A; B; C','No tips from Foursquare!',0,42.2855177,-71.0903534
Bon Me No. 2 Dewey Sq. Parks,"'1 Citywide St.,Boston,MA,USA'",'A; B; C','',0,42.3493824,-71.0777334
Bonchon Allston,"'101 Brighton Ave.,Boston,MA,USA'",'A; B; C','Chicken¥_¥_¥_; The chicken here is AMAZING  as is the kimchi fried rice.; wings are smaller than average  but still delicious! not worth getting other dishes here; Yummy fried chicken _ô„ Would def recommend!; The spicy wings are very spicy but it is so damn delicious that the burn will be worth it',-0.027,42.3530206,-71.1302597
Bonne Chance Cafe,"'77 Canal St.,Boston,MA,USA'",'A; B; C','breakfast sandwiches  bibimbap for lunch!; WiFi pass code is 6177423115; My favorite place  breakfast  salad and subs it's all about amazing food.; Slow for breakfast; Avocados Monday - Wednesday - Fridays and Guac Balls Tuesday  Thursday. Got it? Good. Now grab some monster portobellos.',0.19,42.3641619,-71.059661
Borinquen Bakery & Cafe,"'112 Stoughton St.,Boston,MA,USA'",'A; B; C','The pastelitos are fresh and full of meat. All you can buy pan de agua :-); They make loaves of bread here  if you're missing PR  this place will bring you back :^)',0.283333333,42.3154574,-71.061271
Boston Back Bay Hilton,"'40 Dalton St.,Boston,MA,USA'",'A; B; C','clean  kind staff  corner rooms are the best; Place is subpar but centrally located. Cleaning staff needs an upgrade; Great view from corner rooms; Love this hotel! Get a panoramic room of you can.; Great location. Steep parking price.',0.576111111,42.3465008,-71.0854872
Boston Bagel Company,"'753 E Broadway.,Boston,MA,USA'",'A; B; C','Jalapeí±o cheddar bagel with jalapeí±o cream cheese and an iced snicker doodle coffee. So good!; Sandwich Coffee; What....a....disaster; Should have known this place was going to disappoint. Eggs are microwaved  bagels are sub par  coffee sucks. Typical.; The Lox and dough are from NYC',0.128333333,42.3356325,-71.0353578
Boston Beer Garden,"'732 E Broadway.,Boston,MA,USA'",'A; B; C',"'Great Southie bar. Let's go Red Sox!!; ""skinny"" buffalo chicken salad was awful. the chicken wasnt real.. it was fake processed crap  the sauce was lacking and the salad was FULL of onions. More onions than lettuce. disgusting.; Do not use the bath rooms; Watch your drinks  dont charge me a 2$ premium for capt morgan and pour me admiral nelson in mg face and say its capt...; Not an educated crowd.'",0.003333333,42.3358655,-71.0359884
Boston Beer Works,"'112 Canal.,Boston,MA,USA'",'A; B; C','Great beer flights.  Tasty wings.; Try the Watermelon Beer!! It's great!!; Great selection of microbrews. Food pretty tasty  too.; Re Rico el pollo con papas fritas espaí±olas. La moza re buena onda.; The room upstairs is perfect to host a casual event.',0.515,42.364407,-71.0604379
Boston Beer Works (Pier C),"'300 Logan Airport Trmnl C.,Boston,MA,USA'",'A; B; C','Great beer flights.  Tasty wings.; Try the Watermelon Beer!! It's great!!; Great selection of microbrews. Food pretty tasty  too.; Re Rico el pollo con papas fritas espaí±olas. La moza re buena onda.; The room upstairs is perfect to host a casual event.',0.515,42.3660751,-71.020461
Boston Big Easy,"'624 Blue Hill Ave.,Boston,MA,USA'",'A; B; C','No tips from Foursquare!',0,42.3029077,-71.0850348
Boston College Walsh Hall,"'150 St Thomas Moore.,Boston,MA,USA'",'A; B; C','No tips from Foursquare!',0,42.338298,-71.165323
Boston Common Coffee Co.,"'97 Salem St.,Boston,MA,USA'",'A; B; C','Nothing really special. Nothing to save really from coffee to the furniture.; Personal is very helpful and cherful. The coffee is very awesome. It's great.; NITRO COFFEE!!!!; __ã‰_é_Ÿãˆ__ã†__ _Ë_µãóã_____Á_é: _Ÿ _Ë__ã_____µã‰_____Áã‰ãë  _Ÿ _Ë__________ãó_Ÿã‰ãë. _Í__ã€ã____  ã€ã_ã‰__ã†_µ _Ç_Ÿ___Á__ãˆ_Ÿ___Ÿ  _Ÿ__ã‰_µãó_µã__ã†_µ _éã__Ç_Ÿ.; Free Wi-Fi  good atmosphere  & delicious spinach & feta croissants and cinnamon sugar brioche',0.295714286,42.3638446,-71.0554967
Boston Common Coffee Co.,"'99 Canal St.,Boston,MA,USA'",'A; B; C','Nothing really special. Nothing to save really from coffee to the furniture.; Personal is very helpful and cherful. The coffee is very awesome. It's great.; NITRO COFFEE!!!!; __ã‰_é_Ÿãˆ__ã†__ _Ë_µãóã_____Á_é: _Ÿ _Ë__ã_____µã‰_____Áã‰ãë  _Ÿ _Ë__________ãó_Ÿã‰ãë. _Í__ã€ã____  ã€ã_ã‰__ã†_µ _Ç_Ÿ___Á__ãˆ_Ÿ___Ÿ  _Ÿ__ã‰_µãó_µã__ã†_µ _éã__Ç_Ÿ.; Free Wi-Fi  good atmosphere  & delicious spinach & feta croissants and cinnamon sugar brioche',0.295714286,42.364341,-71.0598742
Boston House Of Pizza,"'305 Huntington Ave.,Boston,MA,USA'",'A; B; C','Never been disappointed until today. Don't order the chicken salad. I am a chicken salad aficionado and this has to be the worst I have ever eaten. Picked off what I could and threw it away.; The buffalo chicken calzone is amazing! Also try any salad with grilled chicken.; Best pizza in Watertown by far.; Doesn't taste like true BHOP on Huntington but a similar style. Decent pizza and subs  but Pizza Roma on Waverly Ave is the place to go around here.; Online ordering has full menu.',0.036944444,42.3412969,-71.0873678
Boston Indian Kitchen Inc.,"'51A Massachusetts Ave.,Boston,MA,USA'",'A; B; C','',0,42.3496934,-71.0892325
Boston Market,"'1010 William T Morrissey Bl.,Boston,MA,USA'",'A; B; C',"'Great place to find a wide range of interesting food or drink. Very well maintained.; Must stop by for some cider donuts in the fall!!; Great little indoor spot for ""vendors"" to gather in one place. Very californiaesque. Good for lunch and early morning breakfast on the go. Lots of artisan and unique stores. Big fan.; Amazing place!! Everything looks delish!!; Love the locally sourced foods and products.'",0.376785714,42.2901014,-71.0448547
Boston Park Plaza (Main Kitchen/Room Serv.),"'50 Park Pz.,Boston,MA,USA'",'A; B; C','',0,42.3510417,-71.0697049
Boston Park Plaza Employee Cafeteria(3Rdfl),"'50 Park Pz.,Boston,MA,USA'",'A; B; C','',0,42.3510417,-71.0697049
Boston Pizza & Grill,"'533 Columbia Rd.,Boston,MA,USA'",'A; B; C','No tips from Foursquare!',0,42.3156864,-71.0659619
Boston Sail Loft,"'80 Atlantic Ave.,Boston,MA,USA'",'A; B; C','Clam Chowder; Clem chowder was decent. Everything else seemed pretty average. Definitely not a stand out restaurant but good for a cup or bowl of chowder.; Seafood beers appetisers; Best chowder in Boston. Maybe New England!; Nachos and Burger's',0.155712121,42.3624726,-71.0505386
Bourbon St. Cafe,"'417 Washington St.,Boston,MA,USA'",'A; B; C','No tips from Foursquare!',0,42.3558635,-71.0604975
Bourbon Street Cafe,"'350 Longwood Ave.,Boston,MA,USA'",'A; B; C','No tips from Foursquare!',0,42.3386237,-71.1072353
Brandy Petes,"'267 Franklin.,Boston,MA,USA'",'A; B; C','The turkey burger with gruyere is delicious; Best Bah in Bahstan excellent staff and incredible door guy ;0); Sunday 3/17 aka St Patricks Day all day JiGGY the Paranormal investigator / Doorman will be working stop in grab a pint and say hi . Got any ghost stories ? He loves to talk about them !; Make sure to say Hi to JiGGY there doorman . Great guy and cool bouncer . He is a Paranormal investigator when he is not bouncing or body guarding .; The staff behaves like its always sunny too. Skip the visit.',0.503333333,42.3565179,-71.0532202
Brannellys Cafe,"'4432 Washington St.,Boston,MA,USA'",'A; B; C','Slightly more comfortable than the quincy market offerings.; Cocktails  atmosphere...friendly staff... little pricey...; Como siempre la comida y el servicio; _Í_µãˆ_µãó____ __ _±ã€_Ç___Ÿ- _Ëã€ãã‰__ã‰_Á... ___ _Ë_µãóã_____Á_é __ã‰_é_Ÿãˆ__ã†__ _Ÿ _Çã€ãš_µ____ã†__.; Great playlist and the food is always reliable!',0.2525,42.280257,-71.13435
Brassica Kitchen & Cafe,"'3710 Washington St.,Boston,MA,USA'",'A; B; C','Order anything.',0,42.300249,-71.113075
Breadwinners/Starbuck's,"'595 Commonwealth Ave.,Boston,MA,USA'",'A; B; C','One of the most tasteful coffee  I can't resist walking beside their places without having coffee; The service was great_ôï; Friendly baristas.; Secret menu items: 'Red Eye' - coffee with one shot of espresso. 'Black Eye' - coffee with two shots of espresso!; Try the Latte with skimmed milk and sugar free hazelnut syrup _ôÖ†_ôïë',0.214444444,42.349626,-71.0995466
Brendan Behan Pub,"'378 Centre St.,Boston,MA,USA'",'A; B; C','Great pint; A cash-only gem. Cafe- library-dive bar fusion feels. A New Yorkers homesickness cure. Wash it down with some cold brews.; Cheap beers  cash only  and great music. A hipster spot at its finest.; The staff will tell you if you order something expensive; Try beers in shot form',0.098720539,42.3219921,-71.1092813
Brigham & Womens Hospital D/B/A O'Naturals,"'70 Francis St.,Boston,MA,USA'",'A; B; C','I work here sometimes.; Never want to go there again-period.; I hate hospitals. Nothing good ever comes out of here  it's all sickness and babies.; Post op checkup.  Back to work on Monday!; This hospital is huge !!!!',0.1853125,42.3358387,-71.1080967
Brigham Circle Chinese Food,"'728 Huntington Ave.,Boston,MA,USA'",'A; B; C',"'Pork fried rice/noodles in lobster sauce with teriyaki chicken starters..it is combo meal; The ""special combinations"" are the way to go! Tons of food for $7-$8.; Most of their food is pretty average but their dumplings are to die for. The best I've ever had.; The luncheon specials are a great deal for around 5 bucks'",0.261607143,42.333779,-71.10516
Brighams & Womens Hospital - Tower Cafe,"'75 Francis St.,Boston,MA,USA'",'A; B; C','No tips from Foursquare!',0,42.3360887,-71.1067067
Brother Deli Restaurant,"'1636 Blue Hill Ave.,Boston,MA,USA'",'A; B; C','Any of the breakfasts specials will leave your stomach and wallet full.; Massive amounts of delicious food for not a lot of money.; Best breakfast on a budget!; Hot sauage and grits omg!; Fish and grits (& sweet tea!)',0.52,42.268114,-71.0933359
Brownstone,"'111 Dartmouth St.,Boston,MA,USA'",'A; B; C',"'Get the duck & sweet potato hash.; Boyfriend LOVED the pulled pork benny. I had french toast and it was delicious; The best brunch in boston! They also make a delicious Bloody Mary; Frosted flake French toast is great; (From Improper Bostonian) ""Situated on the border of Back Bay and the South End  Brownstone is named for the style and elegance reflective of the architecture of Boston's two neighborhoods...""'",0.343333333,42.3464716,-71.0753024
Bruegger's,"'91 Summer St.,Boston,MA,USA'",'A; B; C','Fantastic bagels! Try the veggie cream cheese _ôÖ; No speaka english and screw up simple bagel orders more often than not. Hire Americans that speak and understand English; Skip toasting your bagel when it's fresh out of the oven. Warm and deliciously crispy.; Blueberry bagel with cream cheese. I dare you.; What a sad excuse for a bagel. Dunkin Donuts have more authentic bagels than this joint.',0.274166667,42.3536654,-71.058573
Bruegger's Bagel Bakery,"'375 Longwood Ave.,Boston,MA,USA'",'A; B; C','No tips from Foursquare!',0,42.3398658,-71.1083679
Bruegger's Bagel Bakery,"'370 Western Ave.,Boston,MA,USA'",'A; B; C','No tips from Foursquare!',0,42.3609676,-71.1375155
Bubor Cha Cha,"'41 Beach St.,Boston,MA,USA'",'A; B; C','Huge portions - you can't go wrong with the banquet style seafood dishes.; This place is very inexpensive and their portions are gigantic for dinner. Delicious and very traditional cantonese food! :); Good place! $20 card minimum though :/; agreed  service ain't great; Service isn't very good. They take a while to come to even take your order for drinks. The boneless ribs are phenomenal  though. The best I've EVER had! It's what brings me back!',0.418,42.3512648,-71.0608133
Bunker Hill Community College,"'2 Rutherford Ave.,Boston,MA,USA'",'A; B; C','I LOVE this place!; Don't go here if you want a competently run establishment.; Good luck getting a visitor parking spot.  Better parking on the street by the 99 and walking across bridge then waiting for spot to open up if you don't have parking permit.; Bunker Hill Community College is #22 on our 2011-2012 Top Junior Colleges List  based on your student ratings. See the full list and rate your schools and profs at RateMyProfessors.com.; Just spoke at Bunker Hill Community College. You can see excerpts of my speech here: http://www.scottbrown.com/2012/05/excerpts-of-scott-browns-bipartisanship-speech-americans-first/ #masen',0.39,42.370973,-71.0620028
Burger King,"'1200 Dorchester Ave.,Boston,MA,USA'",'A; B; C','Get the app.; Always seems over packed with people asking for change; It's a wonderful restaurant!; Very big and quiet. So much better than the one near park st.; 50c ice cream',0.23,42.309529,-71.057694
Burger King,"'280 W Broadway.,Boston,MA,USA'",'A; B; C','Get the app.; Always seems over packed with people asking for change; It's a wonderful restaurant!; Very big and quiet. So much better than the one near park st.; 50c ice cream',0.23,42.3392093,-71.0509416
Burger King No. 3531,"'4594 Washington St.,Boston,MA,USA'",'A; B; C','',0,42.2759765,-71.1391773
Burgerfi,"'75 Spring St.,Boston,MA,USA'",'A; B; C','',0,42.2787237,-71.1632963
Burrito's Pizzeria,"'224 Columbia Rd.,Boston,MA,USA'",'A; B; C','Quiero ver el menu completo',0,42.3075243,-71.0763991
Bus Stop Pub,"'252 Western Ave.,Boston,MA,USA'",'A; B; C','Weird regulars and cheap beer. In other words  a perfect dive bar; This place is an absolute last resort. It's  a majorly townie bar. I'm not opposed to townies but this place gets a little too gritty for my taste. Good for a large group. Kitchen closes very early.; The restroom is dirty and the regulars don't wash afterward.  If you like gritty  this is your place.; Opens at 8 am on Sat.; Won't be coming back to this bar again. Came with my team after a softball game and the waitstaff was rude for no reason.',-0.039934524,42.3631683,-71.1327969
Cactus Grill,"'42 Maverick Sq.,Boston,MA,USA'",'A; B; C','Awesome food with a taste of home made. I loved the chimichangas and the sopa. Pollo asado also great.; Super fresh inexpensive food; $2 tacos (steak  veggie  pork  and chicken) and you can get literally ANYTHING on it (including guac) for no additional price. So authentic  so good  you won't regret it!; Shrimp quesadillas are spicy!! So good  and great prices; ChimiChangas are crazy delicious  tacos are loaded & only $2 Burritos the size of newborns this place is just so fresh and so good every time',0.487666667,42.370153,-71.039199
Cafe @ 1295,"'1295 Boylston St.,Boston,MA,USA'",'A; B; C','No tips from Foursquare!',0,42.3450968,-71.0977681
Cafe 1010,"'1010 Massachusetts Ave.,Boston,MA,USA'",'A; B; C','Slightly more comfortable than the quincy market offerings.; Cocktails  atmosphere...friendly staff... little pricey...; Como siempre la comida y el servicio; _Í_µãˆ_µãó____ __ _±ã€_Ç___Ÿ- _Ëã€ãã‰__ã‰_Á... ___ _Ë_µãóã_____Á_é __ã‰_é_Ÿãˆ__ã†__ _Ÿ _Çã€ãš_µ____ã†__.; Great playlist and the food is always reliable!',0.2525,42.3279958,-71.0672402
Cafe 26,"'26 Temple Pl.,Boston,MA,USA'",'A; B; C','No tips from Foursquare!',0,42.3553891,-71.0620905
Cafe Arpeggio,"'398 W Broadway.,Boston,MA,USA'",'A; B; C','No wifi available.; They make really great raspberry lime rickies! The raspberry filled cookies are yummy too.; Good coffee and sandwiches. PB cookies are awesome! No Wi-Fi?; Stuffed turkey sandwich & Malawi Mango Bai drink!; Stuffed Turkey sandwich & Bai Malawi Mango drink!',0.39,42.3374199,-71.0481086
Cafe De Boston,"'75 Federal St.,Boston,MA,USA'",'A; B; C','I rate this as the best salad bar in Boston !; Love the variety ! The customer service is wonderful as well.; Kebab doner; Thank you for catering delicious foods on our event day. The service you provided exceeded all expectations. We recognize and appreciate your dedicated efforts. Meals and Salads are really great.; The food is not that great. The coffee is okay. Pretty big space for meeting up but thats about it.',0.62,42.3550019,-71.0567528
Cafe Hemsin,"'10 City Hall Ave.,Boston,MA,USA'",'A; B; C','Slightly more comfortable than the quincy market offerings.; Cocktails  atmosphere...friendly staff... little pricey...; Como siempre la comida y el servicio; _Í_µãˆ_µãó____ __ _±ã€_Ç___Ÿ- _Ëã€ãã‰__ã‰_Á... ___ _Ë_µãóã_____Á_é __ã‰_é_Ÿãˆ__ã†__ _Ÿ _Çã€ãš_µ____ã†__.; Great playlist and the food is always reliable!',0.2525,42.3577403,-71.0593263
Cafe Jaffa,"'48 Gloucester.,Boston,MA,USA'",'A; B; C','Really well produced shwarma  in a not-too busy cafe. Definitely worth a visit!; Bring your own drink if you're not into high sugar options.; Everything is delicious. My favorite is always the falafel plate.; The babaganoush  all the schawormas!; Chicken shawarma not good. Lamb kabob good',0.254333333,42.3486637,-71.0841564
Cafe Madeleine,"'517 Columbus Ave.,Boston,MA,USA'",'A; B; C','Best thing about this place is the smell when you walk in on a crisp morning. The croissants are a close second though. Pain au chocolat is my favorite.; This place is amazing! The pastries are on point. I can never just get one; Not feeling something sweet? Big mistake but they have you covered. Their croque monsieur is awesome; Croque monsiur; House blend coffee is hands down delicious and all their baked goods are a must try!',0.411944444,42.3421174,-71.0799272
Cafe Mamtaz,"'87 L Street St.,Boston,MA,USA'",'A; B; C','Best Indian food I've had since Hyderabad. Went there with my fiend Priti Thakkar from Mumbai  and she was enthusiastic  too. Just one tiny table (it's really just a takeaway establishment)  but the f; By default  most dishes are served quite mild: you must speak up if you favor the heat of chilies.; Absolutely delicious! The Malai Kofta is awesome!',0.622222222,42.334291,-71.0354814
Cafe Marliave,"'10 Bosworth St.,Boston,MA,USA'",'A; B; C','No tips from Foursquare!',0,42.356858,-71.0602762
Cafe Med,"'31 Saint James Ave.,Boston,MA,USA'",'A; B; C','Sandwiches were extremely dry; Good portions  I love the Greek hamburgers.',0.166666667,42.3509525,-71.0715658
Caffe Dello Sport,"'308 Hanover.,Boston,MA,USA'",'A; B; C','Had the Moroccan coffee  it's amazing; Get the chocolate chip gelato!!; Caramel was amazing; Peanut butter gelato is awesome. Still love their Nutella Cannoli; Nutella Cannoli. Omg',0.39,42.364349,-71.0542
Caffe Lil Italy,"'178 Salem St.,Boston,MA,USA'",'A; B; C','Good coffee and cannoli.; Decaf espresso available.; fast  friendly  and takes credit cards.; Slow service; The mango smoothie is excellent!',0.4175,42.3665574,-71.0547908
Caffe Strega,"'175 Huntington Ave.,Boston,MA,USA'",'A; B; C','slow service  pretty incompetent employees',-0.133333333,42.3450098,-71.0823065
Caffe Vittoria,"'290 Hanover St.,Boston,MA,USA'",'A; B; C','The best place in the North End to satisfy everyone's needs. From coffee  to spiked coffee  cocktails  and a delectable house wine with an extremely generous pour - you can't go wrong here!; Limoncello cake is delicious. Fluffy and light!; Skip the line at Mikes and get the cannollis here; Nice place to have a great coffee and a creamy ice cream! _ôïë_ôé; Why wait for a cannoli when you can order one here? Best tiramisu in the north end  always accompany with a cappuccino or espresso',0.463333333,42.3641859,-71.054484
Canary Square,"'435 S Huntington Ave.,Boston,MA,USA'",'A; B; C','Bartenders are wonderful and accommodating. The burger is always a good choice.; consistently awesome beer selection; Seelochnie Persuad Moonessar Life plan  for yoy;i know the plan i haves for you; declares the lord' plans to prosper you and a future;; Always  perfect; Great drinks but the food is interesting for the area. I really like getting the notebook with the receipt and seeing what everyone else says about Canary Square!',0.673333333,42.3197881,-71.1119981
Cape Verdeon Food Terraterra,"'79 Hancock St.,Boston,MA,USA'",'A; B; C','',0,42.312984,-71.0650222
Cappy's Pizza,"'672 Truman Pk.,Boston,MA,USA'",'A; B; C','Cappy's has some excellent pizza plus mad options... But GOD DAMN since when does a slice of cheese cost more than $3; _ôïë drunk pizza; Food is really good and affordable; Try the chicken club sandwich; Hands down  the best French fries in Boston.',0.03462963,42.252176,-71.1182602
Cappy's Pizza,"'304 Centre.,Boston,MA,USA'",'A; B; C','Cappy's has some excellent pizza plus mad options... But GOD DAMN since when does a slice of cheese cost more than $3; _ôïë drunk pizza; Food is really good and affordable; Try the chicken club sandwich; Hands down  the best French fries in Boston.',0.03462963,42.3227312,-71.1033726
Cappy's Pizza & Subs,"'82 Westland Ave.,Boston,MA,USA'",'A; B; C','Cappy's has some excellent pizza plus mad options... But GOD DAMN since when does a slice of cheese cost more than $3; _ôïë drunk pizza; Food is really good and affordable; Try the chicken club sandwich; Hands down  the best French fries in Boston.',0.03462963,42.34376,-71.0896762
Captain Nemo's,"'367 Centre St.,Boston,MA,USA'",'A; B; C','Pizzas are Ok  salad are really good; Check out the beautiful icon collection behind the counter!; Try the steak and cheese!; Great subs and greasy thin crust pizza. Open very late and the old ladies behind the counter are wicked nice and very good cooks. Food is ready super quick too!; great for late night.  super friendly ladies working pizzas behind the counter.',0.226787879,42.3225122,-71.1085812
Carrie Nation,"'11 Beacon St.,Boston,MA,USA'",'A; B; C',"'$1 oysters on Monday! Brilliant!; The atmosphere is great. There's a large front room that's for formal dining and then there's a back room with a bar and bar food. The Carrie Nation Burger is absolutely delicious.; Great bar and pool in the back room!; The cocktail menu changes constantly. But try the Blind Tiger or the Sazerac or the Cuban something. Perfect place for cocktail hour.#Speakeasy; Llooovveee the ""Trust Your Bartender"" at the speakeasy. Friend asked for something ""autumny"" and the guy made the tastiest drink in the world.'",0.414047619,42.3584916,-71.0617564
Carter Fuller Mental Hospital,"'85 E Newton St.,Boston,MA,USA'",'A; B; C','The food is bad for you and sometimes you cannot tell what is in it  but it's convenient. The elevators do not work normally and often send you to the wrong floors  CODE PURPLE!!!; Psychiatric urgent care located on lobby level  faster than ED for psych help. Cafeteria isn't great  closes between meals. But cheaper than across the street.',0.145572917,42.3362292,-71.0708327
Casa Colombia Rest. Ice Cream & Bakery,"'14 William C Kelly Sq.,Boston,MA,USA'",'A; B; C','No tips from Foursquare!',0,42.3746301,-71.0387562
Centerplate @ Blue Hills Bank Pavilion,"'290 Northern Ave.,Boston,MA,USA'",'A; B; C','Love this venue! Right on the water  which is just gorgeous. And when you're over 40  getting a seat in the front row- as opposed to a pit- is much preferred (not that I plan on sitting!).; Nice summer venue. SUPER STRICT though. I've seen some heavy bands and if people even jump up and down they get reprimanded. Just look at this sign. Lol; #ledzeppelin #pinkfloydd Aussie style perfect summer night #bostonstrong; Great music and great views!; The ultimate summer concert venue. Beer and wine only!',0.528146825,42.3486041,-71.0360352
Chang's House,"'1581 Commonwealth Ave.,Boston,MA,USA'",'A; B; C','Ordered takeout. Lacked flavor and quite greasy.; Greasy  cheap Chinese food; ours exactly what you expect.; It's standard take out Chinese food  greasy and not at all healthy.; I've never eaten here  but you can smell this place two blocks down the street and the smell isn't good; I really enjoy their cashew chicken!!!!!',0.071111111,42.3442572,-71.1429991
Charlestown Cafe,"'78 Arlington Ave.,Boston,MA,USA'",'A; B; C','Beautiful views of Boston  great harborwalk  parks  playground is a state of the art  enjoy watching yachts.; View of the Boston waterfront from a different angle  minus the crowds.; Very cool historical site; Don't let the oppression barrier stifle your journey on the freedom trail.; Features USS Constitution & USS Casing Young',0.192166667,42.3871868,-71.0750047
Charley's Philly Steak,"'417 Washington St.,Boston,MA,USA'",'A; B; C','No tips from Foursquare!',0,42.3558635,-71.0604975
Charlies Pizza And Kitchen,"'930 Dorchester Ave.,Boston,MA,USA'",'A; B; C','Late night pizza! Serving until at least midnight; Outsanding pizza and beer list. Bar staff is excellent; My favorite is the margherita pizza_ô´.; Love the pizza and garlic knots  fun to go with a group.; Try the Diavolo pizza  spicy but good.',0.4525,42.3190874,-71.0566212
Chatime,"'331 Huntington Ave.,Boston,MA,USA'",'A; B; C','Very long wait (about 20 minutes) on a weekday. My tea was excessively sweet -- threw it out after a few sips. Not worth it.; Tried the mango bubble tea and it was meh.; Fish balls are great. Inexpensive; Not bad... wait wasn't long  service was good. jasmine grean milk tea was pretty good ;); The bubble tea is some of the best I've had in Boston!',0.430083333,42.3408791,-71.0883906
Chatime,"'18 Hudson St.,Boston,MA,USA'",'A; B; C','Very long wait (about 20 minutes) on a weekday. My tea was excessively sweet -- threw it out after a few sips. Not worth it.; Tried the mango bubble tea and it was meh.; Fish balls are great. Inexpensive; Not bad... wait wasn't long  service was good. jasmine grean milk tea was pretty good ;); The bubble tea is some of the best I've had in Boston!',0.430083333,42.350582,-71.0599173
Chef Chang's On Back Bay,"'30 Massachusetts Ave.,Boston,MA,USA'",'A; B; C','No tips from Foursquare!',0,42.3504615,-71.0889789
Chequers,"'72 E Concord St.,Boston,MA,USA'",'A; B; C','Surprisingly one of the best places to study during off-hours.',0.85,42.3364013,-71.072408
Chez-Vous Skating Rink,"'11 Rhoades St.,Boston,MA,USA'",'A; B; C','',0,42.2853311,-71.092041
Chicken And Rice Guys,"'1 Citywide St.,Boston,MA,USA'",'A; B; C','Line moves quick!  Garlic cream sauce is legit.; Combo lamb-chicken is the real deal.; Get the large combo w/ red & white sauce.; The food's excellent. The staff are exceptional. Highly recommend!  #amazing #regularcombo; Fast service and great food!',0.380952381,42.3493824,-71.0777334
Chilipa Restaurant,"'1095 Commonwealth Ave.,Boston,MA,USA'",'A; B; C','Their stir fry is good  you can pick an assortment of veggies; Foods looks good.. Come by if u wanna taste the whole MSG since your first bite!!! No joking :(',0.429785156,42.3526374,-71.1254887
Chilli Thai Bistro,"'1795 Commonwealth Ave.,Boston,MA,USA'",'A; B; C','The spicy noodles and the gai him with chicken were very tasty and flavorful. But the spice level can be higher! Service can be slow as they mostly have one server/hostess.; Good addition to the restaurants in Cleveland Circle. The hot ginger tea and the kao soi with tofu were amazing!; The service is good and friendly. The food is good too. Go for the Pad Thai and request to make it spicy.',0.393611111,42.3406535,-71.1514824
Chilton Club,"'150 Commonwealth Ave.,Boston,MA,USA'",'A; B; C','Make sure to try the macaroons; Private club',0.25,42.3517904,-71.0778494
China House,"'331 Hanover St.,Boston,MA,USA'",'A; B; C','Cash only!; D19 with steamed rice is my favorite!; Jum jum jum! Lo mein with vegetables!!; Try the meat on a stick  it is GREAT!',0.40625,42.3642098,-71.0538148
China King Restaurant,"'60 Beach St.,Boston,MA,USA'",'A; B; C','Dim Sum!!! So delicious!; Dim sum on Sundays.; __µ_Ëãó_Ÿ___µã‰__ã†__ __ãƒ___Ç  ____ ____ã€ã‰ãó_Ÿ _Ëãó__ãã‰__ ãã€_Ë_µãó _Ÿ__ã‰_µãóãë_µãó. __ãˆ_µ__ãë ____ã€ã____ ____ã‰____ãã‰ _é___±ãã‰_µãó____. _î_Á _Ÿ __ã_µ __ãã‰_Á_éãë_____µ ã‰_____µ __ãˆ_µ__ãë _Ç__ãã‰_______µ__ãë____.; The mango bubble tea is amazing and they just bring food over to you.; tripe is the best',0.45953125,42.3514633,-71.0601386
China Maxim Iii,"'241 Market St.,Boston,MA,USA'",'A; B; C','Only about 5 seats this place is totally a take out place.',0,42.3547091,-71.1504852
China Pearl Restaurant,"'9 Tyler St.,Boston,MA,USA'",'A; B; C','Dim Sum!!! So delicious!; Dim sum on Sundays.; __µ_Ëãó_Ÿ___µã‰__ã†__ __ãƒ___Ç  ____ ____ã€ã‰ãó_Ÿ _Ëãó__ãã‰__ ãã€_Ë_µãó _Ÿ__ã‰_µãóãë_µãó. __ãˆ_µ__ãë ____ã€ã____ ____ã‰____ãã‰ _é___±ãã‰_µãó____. _î_Á _Ÿ __ã_µ __ãã‰_Á_éãë_____µ ã‰_____µ __ãˆ_µ__ãë _Ç__ãã‰_______µ__ãë____.; The mango bubble tea is amazing and they just bring food over to you.; tripe is the best',0.45953125,42.3511223,-71.060924
China Sea Restaurant,"'1202 Blue Hill Ave.,Boston,MA,USA'",'A; B; C','Dim Sum!!! So delicious!; Dim sum on Sundays.; __µ_Ëãó_Ÿ___µã‰__ã†__ __ãƒ___Ç  ____ ____ã€ã‰ãó_Ÿ _Ëãó__ãã‰__ ãã€_Ë_µãó _Ÿ__ã‰_µãóãë_µãó. __ãˆ_µ__ãë ____ã€ã____ ____ã‰____ãã‰ _é___±ãã‰_µãó____. _î_Á _Ÿ __ã_µ __ãã‰_Á_éãë_____µ ã‰_____µ __ãˆ_µ__ãë _Ç__ãã‰_______µ__ãë____.; The mango bubble tea is amazing and they just bring food over to you.; tripe is the best',0.45953125,42.283423,-71.0914217
Chipotle Mexican Grill,"'144 Brookline Ave.,Boston,MA,USA'",'A; B; C','I've come to this location a number of times  usually when it's quiet; but today I visited during the lunch rush and was pleasantly surprised how quickly they handled the long lines. Bravo!; Good food but embarrassed by my Denver hometown Chipotle not playing up the historical aspect of the corner bookstore in Boston... It's as vanilla plain as a fast food place can get..; The burrito here is not as good as the mission burritos in SF  but Chipotle is the way to go if you want some good guacamole in burrito; The taco salad is the best! Make sure to add guacamole and  if you're very hungry  ask for a bag of chips.; Love the burrito in a bowl',0.392452381,42.3447204,-71.100834
Chipotle Mexican Grille,"'283 Washington St.,Boston,MA,USA'",'A; B; C','I've come to this location a number of times  usually when it's quiet; but today I visited during the lunch rush and was pleasantly surprised how quickly they handled the long lines. Bravo!; Good food but embarrassed by my Denver hometown Chipotle not playing up the historical aspect of the corner bookstore in Boston... It's as vanilla plain as a fast food place can get..; The burrito here is not as good as the mission burritos in SF  but Chipotle is the way to go if you want some good guacamole in burrito; The taco salad is the best! Make sure to add guacamole and  if you're very hungry  ask for a bag of chips.; Love the burrito in a bowl',0.392452381,42.3575319,-71.0584096
Choice's By Au Bon Pain,"'100 Huntington Ave.,Boston,MA,USA'",'A; B; C','I ordered ONLINE and skipped waiting in lines! This cafe is always busy and this new online service is awesome!!!; Half priced baked goods after 6:00 PM.; Corn Chili Bisque is a must have; Great tomato basil soup!',0.311363636,42.347334,-71.0788745
Chow Thai Cafe,"'185 Main.,Boston,MA,USA'",'A; B; C','No tips from Foursquare!',0,42.3760344,-71.0646328
Christos Pizza,"'1761 Centre St.,Boston,MA,USA'",'A; B; C','Greek style pan pizza... SWIMMING in grease... super delicious. Eat it.',0.444444444,42.2875662,-71.1506912
Chubby Chickpea Mobile,"'1 Citywide St.,Boston,MA,USA'",'A; B; C','Schwarma Bomb; I had the Chubby Chickpea wrap - falafel and shawarma. I recommend it with banana peppers. Afterwards  I was very full. I suppose one can say I was chubby happy.; Get the mango sauce',0.209166667,42.3493824,-71.0777334
Chutney's,"'350 Longwood Ave.,Boston,MA,USA'",'A; B; C','Chicken momo is amazing. I ordered twice; Bad chutney with amazing Momos; Veggie momos are really good. Ask them for spicy chutney with it; Everything.; Lamb curry brown rice bowl is really tasty. Masala chilly sauce is good too.',0.15,42.3386237,-71.1072353
Chutney's,"'173 Massachusetts Ave.,Boston,MA,USA'",'A; B; C','Chicken momo is amazing. I ordered twice; Bad chutney with amazing Momos; Veggie momos are really good. Ask them for spicy chutney with it; Everything.; Lamb curry brown rice bowl is really tasty. Masala chilly sauce is good too.',0.15,42.3458871,-71.0873977
Citra A Fresh Cafe,"'221 Longwood Ave.,Boston,MA,USA'",'A; B; C','',0,42.3372871,-71.102142
City Hall Deli (8Th Fl.),"'1 City Hall Plaza.,Boston,MA,USA'",'A; B; C','Pesto chicken sub is so delicious and turkey club; Rotating hot specials every day. Try the beef stew on Tuesdays.',0.225,42.360331,-71.057996
Clay Pot Cafe,"'74 Kneeland St.,Boston,MA,USA'",'A; B; C','Very authentic Chinese food! Love the soups and clay pot rice!; Tiny hole in the wall with home style stir fries and rice cooked in a clay pot topped with meat and sauce.; First time here. Smells delicious! Got the Yellow Eel Clay Pot Rice and while it was good  I just expected more flavor from it. Would definitely recommend this place!; Home style Chinese cooking¥_eel soup and eel clay pot rice ftw; The clay pot rice is pretty good  I got the pork patty with salted fish and it was fragrant and delicious. Please note that clay pot rice takes about 10 min to cook.',0.282142857,42.3505092,-71.0604557
Clery's,"'331 Columbus Ave.,Boston,MA,USA'",'A; B; C','We had fun playing cornhole here the bartender downstairs is great!; they make you wait in line literally for nothing. line to get in  line to get downstairs. not even a good time. K; Wed night trivia  Fri/Sat dance floor in the boom boom room. Back Bay classic!; A nice locals corner bar  with great prices.; One of the best spots for a casual night out in Boston!',0.468333333,42.346241,-71.075215
Clover Fast Food L M A No. 4,"'.,Boston,MA,USA'",'A; B; C','',0,42.3600825,-71.0588801
Clover Fast Food No. 3,"'1 Citywide St.,Boston,MA,USA'",'A; B; C','Carrot soup is delicious!; I love the chickpea platter! Also the fresh pita and hummus is amazing. Order a fresh orange juice  die and go to heaven.; Chickpea fritter sandwich is excellent!; Everything; Sweet potato pocket was amazing...Id skip the fries next time.',0.52625,42.3493824,-71.0777334
Cobblestones,"'227 Hanover St.,Boston,MA,USA'",'A; B; C','Separate bar and restaurant areas  good American food  solid choices. Drink menu is also pretty good; Food was good  atmosphere even better!; Try a flight of beer. You can't choose your own  but the IPA flight is a good sampler if you like hops.; Legit waited 45 minutes for a medium burger txt come to me raw.  Nice atmosphere though. #itslowell; Awesome martinis and cocktails!',0.565423077,42.3629612,-71.0549931
Cocobeet,"'100 City Hall Pz.,Boston,MA,USA'",'A; B; C','Good ingredients but limited selection of smoothies. The juices and cleanses are top notch  and the prices are a tad pricey but affordable. Not easy to find but in a good location. _ô_; Try the Forbidden Juice. Though you can't go wrong with any of their unique combinations.; Be prepared to drop a small fortune.; Mocha Espresso ä_¥Ÿä_¥Ÿ; Was the banana/date/cinnamon/almond smoothie worth the $10 price tag? Debatable  but it was tasty.',0.06197619,42.3594493,-71.0588576
Coda Bar & Kitchen,"'329 Columbus Ave.,Boston,MA,USA'",'A; B; C','Not very crowded at brunch  and the food was really good! Pork shoulder with grits was excellent; Bone-in chicken breast au jus was incredible.; I love the music here!; Tasty burger. Good fries. Good beer. Service? Not included. Not sure why I even left a tip. Table of 1 shouldn't be difficult. But when my beer glass is empty for 5 mins..I take it as a sign-leave.; Not sure what's good cuz I showed up to a VERY limited menu on Sunday at 4pm. Visit after 5 when there's a real menu.',0.31952381,42.3462731,-71.0750553
Code 10 Restaurant Cafe,"'2 E Concord St.,Boston,MA,USA'",'A; B; C','',0,42.3378771,-71.0747174
College Pizza,"'50 Queensberry St.,Boston,MA,USA'",'A; B; C','No tips from Foursquare!',0,42.3425143,-71.0972567
Columbia Park Cafe @ Sovereign Bank,"'2 William T Morrissey Bl.,Boston,MA,USA'",'A; B; C','Susie on the grill makes a great omelet',0.8,42.3188111,-71.0485813
Comella's,"'1882 Centre St.,Boston,MA,USA'",'A; B; C',"'If you have a takeout  check before leaving. Asked for a buffalo chicken sandwich. Came home to find a barbecue (fried) chicken sandwich instead.; Pizza is great but the salads could be better; Cute little Italian eatery. Seat yourself after ordering your food at the counter. Good portions  great meatballs  sauce is good  gnocchi and stuffed shells were tasty.; Great little Italian place in Concord Center. 16"" cheese pizza for $5.00 bucks?  Can't beat that!; Just before / at dinner time they can be VERY busy!'",0.150625,42.2856569,-71.1555497
Conf. Ctr. School Of Mgment,"'595 Commonwealth Ave.,Boston,MA,USA'",'A; B; C','',0,42.349626,-71.0995466
Conor Larkins Grill & Tap,"'329 Huntington Ave.,Boston,MA,USA'",'A; B; C','Buffalo Chicken Nachos  made with cool ranch doritos. Yup.; Order a pitcher of Conor's Amber Ale.  Good beer for good value; Waited 15 minutes to pay. good luck with the services.; Conors Amber; A Northeastern University haunt. Although the taps aren't regularly taken care of  fun nonetheless. Ask for boardgames!',0.2925,42.340918,-71.0882276
Coogan's Bluff,"'171 Milk St.,Boston,MA,USA'",'A; B; C','Dollar beers!; $1 drafts piss warm fuck it I'll take it; This place is not a bad place but one of the barman is not welcoming at all and even a worse bartender making you pay for a $8.00 shot while you ask for an Irish car bomb.; $1 Bud Light  $2 Shock Top... and little else that is redeeming; Can you say meat market?!',0.077291667,42.3582517,-71.0533884
Cookin Cafe & Grille,"'1096 Commonwealth Ave.,Boston,MA,USA'",'A; B; C','I had a decent roast beef sub. Service was good and fast.; try the breakfast sandwiches!; The subs are huge make sure you know what your getting yourself into before you order a large.; Breakfast all day is clutch.; Meatlovers breakfast burrito and turkey club are king here',0.145396825,42.3518199,-71.1242958
Copley Plaza Hotel,"'138 St James Ave.,Boston,MA,USA'",'A; B; C','No tips from Foursquare!',0,42.3490507,-71.0761773
Corner Cafe,"'87 Prince St.,Boston,MA,USA'",'A; B; C','The quintessential dive bar.; Cash only drinking...different  but nice quaint spot for a brew; Ray is the BEST. He works every weekend. His sangria is the bomb!; One of the few places to find Fernet in the North End.; Ray is the best. Order a Cosmo.',0.42,42.3123194,-71.1212087
Corporate Chefs @ Plaza Cafe (Tufts),"'274 Tremont St.,Boston,MA,USA'",'A; B; C','No tips from Foursquare!',0,42.3497824,-71.0647222
Cosi,"'53 State St.,Boston,MA,USA'",'A; B; C','Coffee not good. Actually crappy.; Basically  this place bombs on service and reliability but it is convenient and food is fresh.; The preparation of food is totally inconsistent (e.g. how they slice  how much cream cheese)  frequently low on essentials (large coffee cups  milk).; Prepare to be rushed through at check-out; Good salads but seriously...$10??? I would rather support a local establishment that charges less for better quality and bigger portions! Sorry Cosi!',0.059325397,42.3584972,-71.0561757
Cosi (Pier B) Air Canada,"'200 Logan Airport Trmnl B.,Boston,MA,USA'",'A; B; C','This place was terrible. The sandwiches are extremely hard to eat sitting in a chair - made a huge mess. The employees looked less than enthused to be working and were not friendly.; Definitely grab something to eat BEFORE you go through security; Sante Fe wrap has no flavor and not enough bacon!; Get oatmeal with strawberries!; A healthy alternative äóî choose carrots instead of chips with your sandwich!',0.077638889,42.3645818,-71.0195813
Country Kitchen,"'830 Blue Hill Ave.,Boston,MA,USA'",'A; B; C','Fresh and fluffy donuts and good coffee with friendly staff. Nice old time environment. They take credit cards now; Do I even need to explain?; great coffee and turnovers; Best staff ever! Remember this place is cash only!; Best coffee in the world..',0.5225,42.2962219,-71.0871959
Courtyard Boston Downtown,"'275 Tremont St.,Boston,MA,USA'",'A; B; C','15th floor room was modern and spacious. Ac worked well.; Comfy small room on the 6th floor  just super noisy from the clubs extra door _ôÖ; Great service from everyone: check-in  housekeeping  food service -- all were courteous  helpful and very friendly.; Great location  walk to Commons and dozens of great restaurants.; Ask for the newly renovated rooms... Still small but nice!',0.373813131,42.3499198,-71.0655674
Courtyard By Marriott,"'225 William F Mcclellan Hw.,Boston,MA,USA'",'A; B; C','Parking is now 35 per night. No breakfast included. At least they have USB ports...; The Japanese Restaurant located on the 1st floor was reasonably priced  above average food and a great night for a family of 6; Don't expect to get a decent breakfast at the hotel.  Luckily  there is a Starbucks right next door to the hotel.; Recently renovated rooms  but nothing special. Some upper floor rooms have great views of the river and of the city.; Awesome views of the city or the Charles River. Starbucks  Trader Joes and Dunkin Donuts within a few hundred feet. You must take a walk along the Charles River and watch the row teams!',0.146142857,42.3873694,-71.0163297
Cranberry Cafe Inc.,"'704 E Broadway.,Boston,MA,USA'",'A; B; C','I've been here twice. And they've messed up my order 3 times. Do the math. Coffee is good though.; Microwaved eggs tho _ôÖÍ; Chocolate raspberry iced coffee - yes. Also - call ahead with your order and you'll cut your wait time in half.; Breakfast sandwiches are great  coffee is solid. Marissa and the staff are friendly and helpful. Cute cafe!; Love love love this place. Please open one up in the Fenway area :)',0.276666667,42.3357566,-71.0371896
Crave Mad For Chicken,"'75 Kneeland St.,Boston,MA,USA'",'A; B; C','Get the combo  half mad half angry.; The fried jalepenos stuffed with 'crabmeat' were really good! Stealing this idea!; I love the soy garlic chicken!!; Awesome lunch specials; If you can deal with spicy. Get the spiciest wings in boneless with Korean sauce... And if you cannot stop eating.. I'm not responsible',0.263333333,42.3502805,-71.0607747
Crazy Dough's Pizza,"'2201 Commonwealth Ave.,Boston,MA,USA'",'A; B; C','Killer buffalo chicken slices; If youre not in the mood for pizza I have two words for you: meatball sub.; Expect to find a variety of styles from Hawaiian to the  äóìNutty Tuscan äó served with oven-roasted plum tomato  caramelized onion  roasted garlic  toasted pine nuts  Gorgonzola  basil  and pesto.; The chicken parm sandwich is great if you're looking for a pizza alternative.; Charlie Saves You Dough: Buy any gourmet slice at Crazy Dough Pizza and get a free cheese slice when you show your MBTA Charlie Card.',-0.12,42.3402844,-71.1666091
Crazy Dough's Pizza,"'8 Park Pz.,Boston,MA,USA'",'A; B; C','Killer buffalo chicken slices; If youre not in the mood for pizza I have two words for you: meatball sub.; Expect to find a variety of styles from Hawaiian to the  äóìNutty Tuscan äó served with oven-roasted plum tomato  caramelized onion  roasted garlic  toasted pine nuts  Gorgonzola  basil  and pesto.; The chicken parm sandwich is great if you're looking for a pizza alternative.; Charlie Saves You Dough: Buy any gourmet slice at Crazy Dough Pizza and get a free cheese slice when you show your MBTA Charlie Card.',-0.12,42.3513467,-71.0661306
Crazy Dough's Pizza Company,"'1124 Boylston St.,Boston,MA,USA'",'A; B; C','Better than Frankie's next door (seriously  we tried them both side by side); Great red sauce!; Veggie slice had pesto  toasted pinenuts  and caramelized onions; The best place to try a bunch of over the top slices. So good.; Must try Buffalo chicken pizza',0.117777778,42.3467175,-71.0889175
Crispy Dough Pizzeria,"'1512 Tremont St.,Boston,MA,USA'",'A; B; C','Pizza is solid.; I had the buffalo bleu and it is absolutely incredible; best halal philly cheese steak! and great steak tips sub. never get burger.; The buffalo chicken pizza and calzone are great. Skip the chicken sub  it is really bland.; The Regensberger special is excellent',0.467380952,42.3321315,-71.0995917
Crown Fried Chicken,"'998 Blue Hill Ave.,Boston,MA,USA'",'A; B; C','No tips from Foursquare!',0,42.2898133,-71.0892627
Crush Pizza,"'107 State St.,Boston,MA,USA'",'A; B; C','A margherita pizza with extra basil  sun-dried tomatoes  and arugula is sure to satisfy.; The delivery itself (through Foodlr) was 20 min late from the time stated. Pizza was lukewarm. (Delivered by bike). Crust was mushy  the sauce was ok. It was edible. Don't think I will order again.; The pizzas taste really good  although small enough for just one. The prices are really good for the area and the toppings and combinations for the pizza won't leave you missing anything.; Spectacular pizza fire cooked fast! You'll be impressed. Need to come back and try the sandwiches.; Fast service',0.2405,42.358934,-71.0549472
D'Angelo,"'1345 Hyde Park Ave.,Boston,MA,USA'",'A; B; C','Currently running a special for check-in - free combo up on first check in...50% off on 5th. Could expire at anytime but as of the end of May 2011 it's running.; Don't get the steak cheese rolls its like boiled dog food with cheese; Toasted Thanksgiving sandwich is tops.',0.083928571,42.2530577,-71.1251695
D'Angelo Sandwich Shop,"'818 Harrison Ave.,Boston,MA,USA'",'A; B; C','No tips from Foursquare!',0,42.3357599,-71.0741126
D'Angelo's,"'267 Old Colony Ave.,Boston,MA,USA'",'A; B; C','Worst place to eat at South Station...; New salad bowls are delicious; When you order a medium Vermonter with chicken the total comes to $8.02... Best coincidence ever?; Currently running a special for check-in - free combo up on first check in...50% off on 5th. Could expire at anytime but as of the end of May 2011 it's running.',-0.011674784,42.330979,-71.0532025
D'Angelo's Sandwich Shop,"'8 Park Pz.,Boston,MA,USA'",'A; B; C','No tips from Foursquare!',0,42.3513467,-71.0661306
D'Benny's Subs,"'1433 Dorchester Ave.,Boston,MA,USA'",'A; B; C','No tips from Foursquare!',0,42.3020177,-71.0598808
D'Rafas Restaurant,"'156 Bunker Hill St.,Boston,MA,USA'",'A; B; C','Nantucketäó»s Restaurant Week  is offering 3-course dinners for a mere $25 to $45. With over 30 restaurants in the lineup  participants include pretty much all the islandäó»s best dining destinations.',0.2375,42.3782584,-71.0608269
Daily Catch,"'319 Hanover St.,Boston,MA,USA'",'A; B; C','Spicybl lobster linguine; Check out The Daily Catch as it was featured on Top 5 Restaurants for #5 - feast of the seven fishes celebrating the italian tradition; Black pasta! Any of them is good! Very good service; Pretty outdoor seating. Excellent seafood choices. Friendly service. They accommodated our group of 70 efficiently.; Sit outside and take in the view',0.246777778,42.364066,-71.053976
Darbar Indo-Pak Rest.,"'130 N Beacon St.,Boston,MA,USA'",'A; B; C','',0,42.354939,-71.1447639
Darryls Corner Bar & Kitchen,"'604 Columbus Ave.,Boston,MA,USA'",'A; B; C','Never again. The kicker  from their site: äóìWe have a 2 hour maximum seating time.äó Irony: in 2 hrs wasted there  they can't serve 4 apps & 4 entrees to 4 patrons. Iäó»ve never seen äóìserviceäó like this.; Really fantastic friendly service. Sublime food and drinks. The chicken and waffles are done so well  and the cornbread is astounding. A+ entertainment as well.; Try the Shrimp and Grits - A different  unique and tasty take on a Southern  Classic  The grits are formed into triangles and fried.  #foodporn #shrimpandgrits (via @Foodspotting); Jazz brunch buffet is amazing. Good food  great music  and excellent service.; Great atmosphere!! Amazing food!! The people are gorgeous!!',0.376666667,42.3397664,-71.0824273
Davio's,"'75 Arlington St.,Boston,MA,USA'",'A; B; C','Sit at the kitchen bar; fabulous show. Everything was fabulous; Get a seat at the counter over looking the kitchen!; Sit at the bar that overlooks the kitchen; Although not crowded  food prep took too long and ultimately my diner was not served hot but just warm. Service was slow and food average; Chicken parm spring rolls are amazing! And the Bolognese!',0.125416667,42.3505077,-71.070443
Delicias Del Caribe,"'149 Stoughton St.,Boston,MA,USA'",'A; B; C','No tips from Foursquare!',0,42.314695,-71.0602723
Dem & Ted Inc. Pizza Shuttle,"'239 Meridian St.,Boston,MA,USA'",'A; B; C','No tips from Foursquare!',0,42.3757958,-71.0391163
Designer Cafe'(Au Bon Pain),"'1 Design Center Pl.,Boston,MA,USA'",'A; B; C','I ordered ONLINE and skipped waiting in lines! This cafe is always busy and this new online service is awesome!!!; Half priced baked goods after 6:00 PM.; Corn Chili Bisque is a must have; Great tomato basil soup!',0.311363636,42.3442688,-71.0305676
Devlin's Restaurant,"'332 Washington St.,Boston,MA,USA'",'A; B; C','Great place for brunch cocktails and a nice first dinner date location.; The french toast bites are delicious!; Great brunch cocktails  fantastic atmosphere; this place is so weird. the patio is great. but they have all these weird rules and they don't seem very interested in making their customers happy or maximizing the money they're making; Get the eggs Benedict as part of the brunch menu. Absolutely divine',0.407,42.348871,-71.1523252
Dillon's,"'955 Boylston St.,Boston,MA,USA'",'A; B; C','Great food  nice space. Close to Fenway.; Great brunch & dinner place.; criminally good zucchini fries; Gianni flatbread and sweet fries; Always a good scene on the weekends.',0.65,42.3479567,-71.0859313
Dip It Sweet,"'94 Endicott St.,Boston,MA,USA'",'A; B; C','Be sure to tap the pumpkin ice cream.; 94 Endicott St  North End; Are you up for a challenge that calls for eating 28 scoops of ice cream with multiple toppings  all within 35 minutes? No? Just a scoop? Mention BU Today  and youäó»ll get $1 off your next purchase.',0.166666667,42.364199,-71.057288
Dolce Vita (1696 Comm. Ave.),"'1696 Commonwealth Ave.,Boston,MA,USA'",'A; B; C','',0,42.341217,-71.1465565
Domino's Pizza,"'1672 Blue Hill Ave.,Boston,MA,USA'",'A; B; C','Pretty horrendous pizza. There's many better options around.; Service is on the slow side if you order from the counter. I advise calling ahead or getting it delivered. Staff is reasonably friendly.; Mutha fuckin dominos!; The best pizza i have ever eat!!!; Use your Ram Card here!',0.290833333,42.2676303,-71.0932265
Domino's Pizza,"'4640 Washington St.,Boston,MA,USA'",'A; B; C','Pretty horrendous pizza. There's many better options around.; Service is on the slow side if you order from the counter. I advise calling ahead or getting it delivered. Staff is reasonably friendly.; Mutha fuckin dominos!; The best pizza i have ever eat!!!; Use your Ram Card here!',0.290833333,42.2748874,-71.1397325
Domino's Pizza,"'4000 Washington St.,Boston,MA,USA'",'A; B; C','Pretty horrendous pizza. There's many better options around.; Service is on the slow side if you order from the counter. I advise calling ahead or getting it delivered. Staff is reasonably friendly.; Mutha fuckin dominos!; The best pizza i have ever eat!!!; Use your Ram Card here!',0.290833333,42.2923283,-71.1215439
Domino's Pizza,"'1252 Boylston St.,Boston,MA,USA'",'A; B; C','Pretty horrendous pizza. There's many better options around.; Service is on the slow side if you order from the counter. I advise calling ahead or getting it delivered. Staff is reasonably friendly.; Mutha fuckin dominos!; The best pizza i have ever eat!!!; Use your Ram Card here!',0.290833333,42.3448775,-71.0957999
Domino's Pizza (277 Main St. Chasn.),"'277 Main St.,Boston,MA,USA'",'A; B; C','',0,42.3775163,-71.0666607
Donna's Restaurant,"'978 Saratoga St.,Boston,MA,USA'",'A; B; C','Apple pancakes are delicious!; The pancakes are unbelievable; Get the pancakes!; Donna's a hoot. Quick and tasty breakfast with friendly service and unique charm. I will be back.; Best steake & cheese ever',0.404166667,42.387026,-71.0074001
Donut-N-Donuts Inc.,"'1 Sullivan St.,Boston,MA,USA'",'A; B; C','No tips from Foursquare!',0,42.3777726,-71.0672792
Dosa Factory,"'316 Newbury St.,Boston,MA,USA'",'A; B; C','STAY AWAY. Served us salad with rotten tomatoes. They didn't even apologize & owner was standing right there  did nothing. Charged us for everything even the rotten salad. Bathrooms were gross. Yuck; Lunch buffet is yummy and reasonable at $12. The $4 naan is not included and is overpriced.; Large and delicious menu! Also a great place to grab a refreshing lassi or fruit drink in the summer. Owner is so nice.',0.321904762,42.3485809,-71.0853988
Dot 2 Dot Cafe,"'1735 Dorchester Ave.,Boston,MA,USA'",'A; B; C','The place and the staff are awesome!; I had the D2D omelette which was delicious. The homefries that accompanied it were honestly the best I've ever had. The hot chocolate was a hit too! A great experience all around!; Best breakfast menu in Dorchester. Excellent vegan menu.; I had the eggs benedict which was pretty yum! But wanted some pancakes and sausage. 20 bux later. #tooexpensive; The corned beef hash is superb.',0.78775,42.2909799,-71.0630433
Double Tree Club Hotel,"'821 Washington St.,Boston,MA,USA'",'A; B; C','New chef food not as good. Bar service slow and not attentive; Boston Trolley Tours stops right outside our door each day at 9:00AM!  See our doorman for information on how to get tickets and see the best sights of the city.; One of the nicer DoubleTree properties at which I've stayed. Easily walkable from train station  nice updated room. Solid.; Out standing costumer service ! Delicious eats  beautiful rooms & great deals ! Book your trip today ;); Welcomed with chocolate chip cookies :)',0.426421356,42.3487236,-71.0646454
Double Tree Club Hotel/Starbucks,"'821 Washington St.,Boston,MA,USA'",'A; B; C','New chef food not as good. Bar service slow and not attentive; Boston Trolley Tours stops right outside our door each day at 9:00AM!  See our doorman for information on how to get tickets and see the best sights of the city.; One of the nicer DoubleTree properties at which I've stayed. Easily walkable from train station  nice updated room. Solid.; Out standing costumer service ! Delicious eats  beautiful rooms & great deals ! Book your trip today ;); Welcomed with chocolate chip cookies :)',0.426421356,42.3487236,-71.0646454
Dough East Boston,"'20 Maverick St.,Boston,MA,USA'",'A; B; C','The border. You won't regret it; Great sandwiches !!!!; Great sandwiches !!!; Cuban sandwich is great!!!; Great people own this place - stop by and support them. Also there food is wicked good.',0.74,42.3716536,-71.0420494
Douzo Japanese Restaurant,"'131 Dartmouth St.,Boston,MA,USA'",'A; B; C','Spicy lobster miso soup - try it. So good! The sushi too.; Go to sushi spot in Boston. For rolls  Crunchy (so good worth having 2)  Spicy tuna cucumber hand roll  Jalepona tuna app  Spicy tuna/ salmon. For apps the Salmon and tuna tartare are both awesome.; Nothing spectacular  but good service and good sushi. Might be the best sushi I've had in Boston.; Overpriced. So many better choices around.; Phoenix roll',0.558333333,42.3469178,-71.0750402
Down Home Delivery & Catering,"'2 Bowdoin St.,Boston,MA,USA'",'A; B; C','By far my favorite spot; Fried chicken is delicious and has plenty of flavor! Collared greens are just right! Corn bread is soft and sweet _ôÖ_ my tummy is full; Tha food is great! Kinda expensive but when you want something good it usually costs! #Cheerz',0.26046627,42.3611467,-71.0628943
Doyles Cafe,"'3484 Washington St.,Boston,MA,USA'",'A; B; C','Free #samadams glass after the tour!; The lobster roll was incredible!; Get the Sam Adams beer to get the glass as well food was great.; Just tourists  If you love people from other places you'll love this place!; Buy a Samuel Adams pint and keep the glass.',0.526666667,42.3064259,-71.1072393
Dragon Bowl,"'396 Brookline Ave.,Boston,MA,USA'",'A; B; C','You can get brown rice for no extra cost.; Combo plate with brown rice  chicken with bok choy and vegetables.; No longer accepts Level Up as payment; They accept Level Up payments; Loved the tofu bowl',0.02,42.338263,-71.106985
Dragon Chef Chinese Rest.,"'411 Washington St.,Boston,MA,USA'",'A; B; C','Chinese Cuisine',0,42.3492717,-71.1554071
Dublin House,"'9 Stoughton St.,Boston,MA,USA'",'A; B; C','they're fried shrimp is bomb!!!',0,42.316871,-71.0647189
Dudley Dough,"'2300 Washington St.,Boston,MA,USA'",'A; B; C','Delicious  whole bodied pizza's! Great staff as well!!; Pizza with a purpose!  And it's so darn yummy!',0.375,42.3301639,-71.083968
Dudly Coffee,"'2296 Washington St.,Boston,MA,USA'",'A; B; C','Best coffee in downtown Boston; Service is slow but coffee is really good!; Good coffee  but $6 for a pourover?!?! Go around the corner to Thinking Cup  where they serve Stumptown pourovers at half the price.; the desserts here are bomb... get those little tarts before they run out. chai cookies amazing too; Coffee  tea. Tarts',0.382083333,42.3304325,-71.0837531
Dumpling Cafe Inc.,"'693 Washington St.,Boston,MA,USA'",'A; B; C',"'""Best soup dumplings outside of Hong Kong. Great spot with a lot of interesting flavors."" - Chef Jamie Bissonnette; The soup dumplings are soo good! The noodle soups were delicious. Can't wait to go back!; Fried. Rice. That is all.; Seafood loneliness and the pepper and salt kalamari; Mini juicy buns (these are the soup dumplings) - go for all pork AND crab!!!  Also the trout is killer.'",0.24,42.3511662,-71.0630012
Dumpling King,"'40 Harrison Ave.,Boston,MA,USA'",'A; B; C','The chicken dumplings are more flavorful than the veggie ones. Quick service and inexpensive food. My only disappointment is that the dumpling wrapper is just way too thick.; What a deal! 10 dumplings for $5! And they're good! This is THE place to go to for lunch if you work in the area.; $5 for an order of ten tasty dumplings  soup and a drink is a winning combo!  Love the pork and leek or pork and mushroom dumplings.; Cash only!!; It is located in a small food court  look for the address 40 Harrison ave and go straight in to the back. It's on the right.',0.239563492,42.3516622,-71.0608976
Dunkin Donuts,"'4175 Washington.,Boston,MA,USA'",'A; B; C','Best place to stop on your way to the convention center for a coffee!; When you can't get a simple order like two donuts and two coffees right  something's wrong.; Don't bother asking for them to actually do anything less than simple.; The service is terrible; Hot chocolate and a glazed donut on a cold winter night.',-0.172896825,42.2879171,-71.1270075
Dunkin Donuts,"'1580 Dorchester Ave.,Boston,MA,USA'",'A; B; C','Best place to stop on your way to the convention center for a coffee!; When you can't get a simple order like two donuts and two coffees right  something's wrong.; Don't bother asking for them to actually do anything less than simple.; The service is terrible; Hot chocolate and a glazed donut on a cold winter night.',-0.172896825,42.2970569,-71.0604478
Dunkin Donuts,"'715 Boylston St.,Boston,MA,USA'",'A; B; C','Best place to stop on your way to the convention center for a coffee!; When you can't get a simple order like two donuts and two coffees right  something's wrong.; Don't bother asking for them to actually do anything less than simple.; The service is terrible; Hot chocolate and a glazed donut on a cold winter night.',-0.172896825,42.3496592,-71.0800079
Dunkin Donuts,"'219 Cambridge St.,Boston,MA,USA'",'A; B; C','Homeless man out front told me I dropped my smile. Then told me my smile lights up the room. Lmao !; Pidan el numero 12 esta riquicimo! es con tuna. wao.; Staff is super friendly  my iced coffees always taste good from here. The resident homeless guy who sits outside the door always says have a nice day & occasionally compliments your clothing choices.; Service is great and fast!! The employees are also very friendly. Try a French Vanilla Ice Coffee with milk and sugar. They make a mean ice coffee.; Service here is either wonderful or horrible.',0.208444444,42.3583446,-71.1263543
Dunkin Donuts,"'456 Blue Hill Ave.,Boston,MA,USA'",'A; B; C','Very slow drive thru.; Drive thru us slow because there's always at least a dozen people in line. The employees are fast  orders are slow.; you will burn gas waiting in drive thru. coollattas aren't too bad.; If you are in a rush  this is not the place to go for coffee. Buy a coffee maker and save some money.; Coffee coollatta w/cream is off the hindges  but yeah  slow drive-thru.',-0.313,42.3094381,-71.0820627
Dunkin Donuts,"'800 Boylston St.,Boston,MA,USA'",'A; B; C','Best place to stop on your way to the convention center for a coffee!; When you can't get a simple order like two donuts and two coffees right  something's wrong.; Don't bother asking for them to actually do anything less than simple.; The service is terrible; Hot chocolate and a glazed donut on a cold winter night.',-0.172896825,42.348521,-71.0822975
Dunkin Donuts,"'757 Centre St.,Boston,MA,USA'",'A; B; C','No tips from Foursquare!',0,42.3104662,-71.1152151
Dunkin Donuts,"'21 Austin.,Boston,MA,USA'",'A; B; C','Best place to stop on your way to the convention center for a coffee!; When you can't get a simple order like two donuts and two coffees right  something's wrong.; Don't bother asking for them to actually do anything less than simple.; The service is terrible; Hot chocolate and a glazed donut on a cold winter night.',-0.172896825,42.258076,-71.12593
Dunkin Donuts,"'80 Boylston St.,Boston,MA,USA'",'A; B; C','No tips from Foursquare!',0,42.3520126,-71.0649292
Durgin Park Restaurant,"'300 Faneuil Hall Marketplace.,Boston,MA,USA'",'A; B; C','The ribs were incredible with a side fries & onion rings with honey mustard. _ôé They have a full baräó_¥ŸBrother Reggie had fish and chips. Plenty of Crown Royal with ginger ale makes walking around fun.; Clams and chowder; It had a very bad smell when we first walked in so I was skeptical  but our meal was delicious! I had the lobster Mac and cheese and it was amazing. The oysters are great as well!; Amazing lobster roll! Everything tasted like it was made fresh that day. Will definitely be coming back here. Waitstaff was super friendly  too!; Old school vibe.  Surf and turf option.',0.233069444,42.3597994,-71.0544602
Eagles Deli,"'1918 Beacon St.,Boston,MA,USA'",'A; B; C','Hamburger  what else?; Can't go wrong with a breakfast sandwich and some home fries.; Everything I've had here has been good  If your a burger lover this is the olace; Used to love this place but sadly 5 guys  shake shack  and tasty burger are all better burgers.; It's all about the #3 chicken sandwich with a chocolate milk',-0.046666667,42.3366194,-71.1492179
East Boston House Of Pizza,"'271 Meridian St.,Boston,MA,USA'",'A; B; C','Never been disappointed until today. Don't order the chicken salad. I am a chicken salad aficionado and this has to be the worst I have ever eaten. Picked off what I could and threw it away.; The buffalo chicken calzone is amazing! Also try any salad with grilled chicken.; Best pizza in Watertown by far.; Doesn't taste like true BHOP on Huntington but a similar style. Decent pizza and subs  but Pizza Roma on Waverly Ave is the place to go around here.; Online ordering has full menu.',0.036944444,42.3762785,-71.0389397
East Ocean City,"'25 Beach St.,Boston,MA,USA'",'A; B; C','Great chinese seafood.; Roasted whole (or half) garlic chicken is exquisite.; All I can say is mmmmm mmmmm good!! Everything; They got the best Fried Squid I've had in a long time.  The Scallion pancakes are good too. :); Try the oysters steamed with ginger and scallions. The winter melon soup and the fried squid appetizer are also scrumptious.',0.409166667,42.3513468,-71.0617888
Eat @ Corner Cafe,"'502 Massachusetts Ave.,Boston,MA,USA'",'A; B; C','Such variety! I've tried the chicken salad sandwich and fries  yum. Very affordable prices too.; Cheap & Fast: the $2.25-2.50 bowls of soup fill me up. Choose from 3 delicious & healthy options every day.  Add a roll for $1 more!; LOVE the Oreo cake!!!!!; Best hamburgers!; I like the Hummus wraps  with carrots And tomato and lettuce. Even the inpatient meal. Pretty goof',0.532333333,42.339277,-71.080097
Edu And Den's Restaurant,"'637 River St.,Boston,MA,USA'",'A; B; C','',0,42.2651599,-71.0993101
Egleston Pizza,"'3080 Washington St.,Boston,MA,USA'",'A; B; C','The subs are huge for the price; Best pizza I have had in a long time..:-); Prices are great. Pasta dishes feed two ppl; Always quick delivery',0.504166667,42.3154112,-71.098455
El Chalan,"'405 Chelsea St.,Boston,MA,USA'",'A; B; C','No tips from Foursquare!',0,42.3797966,-71.0270318
El Embajador Restaurant,"'3371 Washington St.,Boston,MA,USA'",'A; B; C','Their monfogo are really good; Love the playable maduro; Great beans',0.666666667,42.3091641,-71.1052281
El Fongon Restaurant,"'170 Blue Hill Ave.,Boston,MA,USA'",'A; B; C','No tips from Foursquare!',0,42.3189612,-71.0776057
El Oriental De Cuba,"'414 Centre St.,Boston,MA,USA'",'A; B; C','i ate some kind of beef stew? portions r large and the food is fragrant and flavorfuläìÂ; The maduros are AMAZING _ôÖ_ôÖ_ôÖ; Chicharron de pollo; Their specialty Cuban sandwich is legit. Espresso is decent too.; I love the Grilled .#steak and onion plate_ôï',0.334761905,42.320863,-71.1106137
El Paisa Ii,"'215 Border St.,Boston,MA,USA'",'A; B; C','Lulo jugo con leche; Delicious Colombian hot cocoa.; Tasty empanadas; Buí±uelos  arepas con quesito  seafood paella  latin breakfast  and the ring bread dessert',0.15625,42.3755913,-71.0395952
El Paisa Restaurante,"'1012 Bennington St.,Boston,MA,USA'",'A; B; C','Lulo jugo con leche; Delicious Colombian hot cocoa.; Tasty empanadas; Buí±uelos  arepas con quesito  seafood paella  latin breakfast  and the ring bread dessert',0.15625,42.3870999,-71.006316
El Penol Restaurant,"'54 Bennington St.,Boston,MA,USA'",'A; B; C','Bandeja paisa un verdadero manjar ;-); Food is great but the beans did not like big portions of food! For 2 people not bad; If you need the bandeja paisa. Order the mini  less rice just as filling.; The food was mediocre at best. In addition  there was only one waitress for the entire place.; ŒËla carnita desmenuzada? Uuuuuy hermano  Œçtenaz!',0.118333333,42.375787,-71.037132
El Pollo Doreno,"'309 Bennington St.,Boston,MA,USA'",'A; B; C','Muy buenas enchiladas; Don't get a margarita here:-((( food is good',-0.0125,42.378876,-71.0278534
El Rinconcito,"'226 Sumner St.,Boston,MA,USA'",'A; B; C','No tips from Foursquare!',0,42.3687394,-71.0390337
Elephant & Castle Pub And Restaurant,"'161 Devonshire St.,Boston,MA,USA'",'A; B; C','Food was pretty meh.; The food was cold and had no taste. The waitor was no good also he never checked on us i had to ask another waitress for help.; Slow service.....; Tuesday night trivia is really well done  and very challenging! Best enjoyed with fried pickles.; Good breakfast',0.160625,42.3563767,-71.0575545
Emack & Bolio's,"'290 Newbury St.,Boston,MA,USA'",'A; B; C','Oreo frappe!; Try the Citrus Cooler. It's incredible! And while you're at it  get a chocolate coveres oreo.',0.5,42.3488226,-71.0845696
Embassy Suites Boston (Fs),"'207 Porter St.,Boston,MA,USA'",'A; B; C','Nice hotel with a good  free breakfast. Their wifi is terrible but an upgrade is in the works.; Note that Massachusetts law does not allow complimentary alcoholic beverages. You need to buy your own at this Manager's Reception.; They charge for internet. The breakfast is amazing!; Worst idea ever: charge extra for wi-fi per divice. Not even hostals charge for wi-fi.; Great place to stay when you need to be by airport.',0.288333333,42.3701536,-71.0319121
Emilios Pizza & Subs,"'536 Tremont St.,Boston,MA,USA'",'A; B; C','Veal Parmesan; Best pizza in town; the cheese pizza is legit delicious; pizza. fail. burnt. weird.; Honestly  the crust was mediocre. The sauce  cheese  romping a we're good  but the base was bland white bread crust.',0.294444444,42.344302,-71.0705658
Emmanuel College,"'400 Fenway.,Boston,MA,USA'",'A; B; C','A very nice college.; A fabulous yoga pant campus. Many fine examples of how to wear yoga pants if you can get over the craptastic Ugz Boots. Cameltoe central in the summer.; Loved this place. As a recent alumni  I keep coming back. If you end up in suite g03 make sure to check in to the cave! We've left quite the legacy down there; A fabulous institution.; Take a tour of campus and see everything Emmanuel has to offer!',0.340814815,42.3403687,-71.1016439
Emmets Irish Pub,"'6 Beacon St.,Boston,MA,USA'",'A; B; C','Quiet enough to talk without raising your voice. Nice old-fashioned pub.; Live music and Moscow mule!; Quality beer selection and the fish and chips were very good.; The wings with bourbon sauce are incredible.; Boston'a best fish and chips! And the atmosphere at the top of Boston Commons is superb! Read about the namesake Robert Emmet while you are there :)',0.586090909,42.3579992,-71.0616161
