Name,Address,Grades,Latitude,Longitude 
King Of Wings,"'109 Blue Hill Ave.,Boston,MA,USA'",'B; C',42.3212039,-71.0775256
Saint John's Seminary Bishop Peterson Hall,"'127 Lake St.,Boston,MA,USA'",'B',42.3439575,-71.162576
Article 24,"'458 Western Ave.,Boston,MA,USA'",'B',42.3619505,-71.1422134
Yawkey Center Coffee South,"'32 Fruit St.,Boston,MA,USA'",'B',42.3620194,-71.0694942
Virgin Atlantic Airways Clubhouse,"'500 Logan Airport Trmnl E.,Boston,MA,USA'",'B',42.3685769,-71.0228005